[{"code":100000,"lat":39.915085,"level":0,"lng":116.3683244,"mergerName":"中国","name":"中国","parentCode":0,"pinYin":"China","shortName":"中国"},{"code":110000,"lat":39.904989,"level":1,"lng":116.405285,"mergerName":"中国,北京","name":"北京市","parentCode":100000,"pinYin":"Beijing","shortName":"北京"},{"code":110100,"lat":39.904989,"level":2,"lng":116.405285,"mergerName":"中国,北京,北京市","name":"北京市","parentCode":110000,"pinYin":"Beijing","shortName":"北京"},{"code":110101,"lat":39.93157,"level":3,"lng":116.41005,"mergerName":"中国,北京,北京市,东城区","name":"东城区","parentCode":110100,"pinYin":"Dongcheng","shortName":"东城"},{"code":110102,"lat":39.9305,"level":3,"lng":116.36003,"mergerName":"中国,北京,北京市,西城区","name":"西城区","parentCode":110100,"pinYin":"Xicheng","shortName":"西城"},{"code":110105,"lat":39.9484,"level":3,"lng":116.48548,"mergerName":"中国,北京,北京市,朝阳区","name":"朝阳区","parentCode":110100,"pinYin":"Chaoyang","shortName":"朝阳"},{"code":110106,"lat":39.8585,"level":3,"lng":116.28625,"mergerName":"中国,北京,北京市,丰台区","name":"丰台区","parentCode":110100,"pinYin":"Fengtai","shortName":"丰台"},{"code":110107,"lat":39.90564,"level":3,"lng":116.2229,"mergerName":"中国,北京,北京市,石景山区","name":"石景山区","parentCode":110100,"pinYin":"Shijingshan","shortName":"石景山"},{"code":110108,"lat":39.95931,"level":3,"lng":116.29812,"mergerName":"中国,北京,北京市,海淀区","name":"海淀区","parentCode":110100,"pinYin":"Haidian","shortName":"海淀"},{"code":110109,"lat":39.94043,"level":3,"lng":116.10137,"mergerName":"中国,北京,北京市,门头沟区","name":"门头沟区","parentCode":110100,"pinYin":"Mentougou","shortName":"门头沟"},{"code":110111,"lat":39.74786,"level":3,"lng":116.14257,"mergerName":"中国,北京,北京市,房山区","name":"房山区","parentCode":110100,"pinYin":"Fangshan","shortName":"房山"},{"code":110112,"lat":39.90966,"level":3,"lng":116.65716,"mergerName":"中国,北京,北京市,通州区","name":"通州区","parentCode":110100,"pinYin":"Tongzhou","shortName":"通州"},{"code":110113,"lat":40.1302,"level":3,"lng":116.65417,"mergerName":"中国,北京,北京市,顺义区","name":"顺义区","parentCode":110100,"pinYin":"Shunyi","shortName":"顺义"},{"code":110114,"lat":40.22072,"level":3,"lng":116.2312,"mergerName":"中国,北京,北京市,昌平区","name":"昌平区","parentCode":110100,"pinYin":"Changping","shortName":"昌平"},{"code":110115,"lat":39.72668,"level":3,"lng":116.34149,"mergerName":"中国,北京,北京市,大兴区","name":"大兴区","parentCode":110100,"pinYin":"Daxing","shortName":"大兴"},{"code":110116,"lat":40.31602,"level":3,"lng":116.63168,"mergerName":"中国,北京,北京市,怀柔区","name":"怀柔区","parentCode":110100,"pinYin":"Huairou","shortName":"怀柔"},{"code":110117,"lat":40.14056,"level":3,"lng":117.12133,"mergerName":"中国,北京,北京市,平谷区","name":"平谷区","parentCode":110100,"pinYin":"Pinggu","shortName":"平谷"},{"code":110228,"lat":40.37618,"level":3,"lng":116.84295,"mergerName":"中国,北京,北京市,密云县","name":"密云县","parentCode":110100,"pinYin":"Miyun","shortName":"密云"},{"code":110229,"lat":40.45672,"level":3,"lng":115.97494,"mergerName":"中国,北京,北京市,延庆县","name":"延庆县","parentCode":110100,"pinYin":"Yanqing","shortName":"延庆"},{"code":120000,"lat":39.125596,"level":1,"lng":117.190182,"mergerName":"中国,天津","name":"天津市","parentCode":100000,"pinYin":"Tianjin","shortName":"天津"},{"code":120100,"lat":39.125596,"level":2,"lng":117.190182,"mergerName":"中国,天津,天津市","name":"天津市","parentCode":120000,"pinYin":"Tianjin","shortName":"天津"},{"code":120101,"lat":39.11718,"level":3,"lng":117.21456,"mergerName":"中国,天津,天津市,和平区","name":"和平区","parentCode":120100,"pinYin":"Heping","shortName":"和平"},{"code":120102,"lat":39.12318,"level":3,"lng":117.22562,"mergerName":"中国,天津,天津市,河东区","name":"河东区","parentCode":120100,"pinYin":"Hedong","shortName":"河东"},{"code":120103,"lat":39.10959,"level":3,"lng":117.22327,"mergerName":"中国,天津,天津市,河西区","name":"河西区","parentCode":120100,"pinYin":"Hexi","shortName":"河西"},{"code":120104,"lat":39.13821,"level":3,"lng":117.15074,"mergerName":"中国,天津,天津市,南开区","name":"南开区","parentCode":120100,"pinYin":"Nankai","shortName":"南开"},{"code":120105,"lat":39.14816,"level":3,"lng":117.19697,"mergerName":"中国,天津,天津市,河北区","name":"河北区","parentCode":120100,"pinYin":"Hebei","shortName":"河北"},{"code":120106,"lat":39.16715,"level":3,"lng":117.15145,"mergerName":"中国,天津,天津市,红桥区","name":"红桥区","parentCode":120100,"pinYin":"Hongqiao","shortName":"红桥"},{"code":120110,"lat":39.0863,"level":3,"lng":117.31436,"mergerName":"中国,天津,天津市,东丽区","name":"东丽区","parentCode":120100,"pinYin":"Dongli","shortName":"东丽"},{"code":120111,"lat":39.14123,"level":3,"lng":117.00927,"mergerName":"中国,天津,天津市,西青区","name":"西青区","parentCode":120100,"pinYin":"Xiqing","shortName":"西青"},{"code":120112,"lat":38.99139,"level":3,"lng":117.38537,"mergerName":"中国,天津,天津市,津南区","name":"津南区","parentCode":120100,"pinYin":"Jinnan","shortName":"津南"},{"code":120113,"lat":39.22131,"level":3,"lng":117.13217,"mergerName":"中国,天津,天津市,北辰区","name":"北辰区","parentCode":120100,"pinYin":"Beichen","shortName":"北辰"},{"code":120114,"lat":39.38415,"level":3,"lng":117.04443,"mergerName":"中国,天津,天津市,武清区","name":"武清区","parentCode":120100,"pinYin":"Wuqing","shortName":"武清"},{"code":120115,"lat":39.71761,"level":3,"lng":117.3103,"mergerName":"中国,天津,天津市,宝坻区","name":"宝坻区","parentCode":120100,"pinYin":"Baodi","shortName":"宝坻"},{"code":120116,"lat":39.02668,"level":3,"lng":117.70162,"mergerName":"中国,天津,天津市,滨海新区","name":"滨海新区","parentCode":120100,"pinYin":"Binhaixinqu","shortName":"滨海新区"},{"code":120221,"lat":39.33048,"level":3,"lng":117.8255,"mergerName":"中国,天津,天津市,宁河县","name":"宁河县","parentCode":120100,"pinYin":"Ninghe","shortName":"宁河"},{"code":120223,"lat":38.94582,"level":3,"lng":116.97436,"mergerName":"中国,天津,天津市,静海县","name":"静海县","parentCode":120100,"pinYin":"Jinghai","shortName":"静海"},{"code":120225,"lat":40.04567,"level":3,"lng":117.40799,"mergerName":"中国,天津,天津市,蓟县","name":"蓟县","parentCode":120100,"pinYin":"Jixian","shortName":"蓟县"},{"code":130000,"lat":38.045474,"level":1,"lng":114.502461,"mergerName":"中国,河北省","name":"河北省","parentCode":100000,"pinYin":"Hebei","shortName":"河北"},{"code":130100,"lat":38.045474,"level":2,"lng":114.502461,"mergerName":"中国,河北省,石家庄市","name":"石家庄市","parentCode":130000,"pinYin":"Shijiazhuang","shortName":"石家庄"},{"code":130102,"lat":38.03665,"level":3,"lng":114.53906,"mergerName":"中国,河北省,石家庄市,长安区","name":"长安区","parentCode":130100,"pinYin":"Changan","shortName":"长安"},{"code":130104,"lat":38.03221,"level":3,"lng":114.46977,"mergerName":"中国,河北省,石家庄市,桥西区","name":"桥西区","parentCode":130100,"pinYin":"Qiaoxi","shortName":"桥西"},{"code":130105,"lat":38.05088,"level":3,"lng":114.46326,"mergerName":"中国,河北省,石家庄市,新华区","name":"新华区","parentCode":130100,"pinYin":"Xinhua","shortName":"新华"},{"code":130107,"lat":38.06705,"level":3,"lng":114.06518,"mergerName":"中国,河北省,石家庄市,井陉矿区","name":"井陉矿区","parentCode":130100,"pinYin":"Jingxingkuangqu","shortName":"井陉矿区"},{"code":130108,"lat":38.00604,"level":3,"lng":114.53115,"mergerName":"中国,河北省,石家庄市,裕华区","name":"裕华区","parentCode":130100,"pinYin":"Yuhua","shortName":"裕华"},{"code":130109,"lat":38.02162,"level":3,"lng":114.84671,"mergerName":"中国,河北省,石家庄市,藁城区","name":"藁城区","parentCode":130100,"pinYin":"Gaocheng","shortName":"藁城"},{"code":130110,"lat":38.08782,"level":3,"lng":114.31347,"mergerName":"中国,河北省,石家庄市,鹿泉区","name":"鹿泉区","parentCode":130100,"pinYin":"Luquan","shortName":"鹿泉"},{"code":130111,"lat":37.90022,"level":3,"lng":114.64834,"mergerName":"中国,河北省,石家庄市,栾城区","name":"栾城区","parentCode":130100,"pinYin":"Luancheng","shortName":"栾城"},{"code":130121,"lat":38.03688,"level":3,"lng":114.14257,"mergerName":"中国,河北省,石家庄市,井陉县","name":"井陉县","parentCode":130100,"pinYin":"Jingxing","shortName":"井陉"},{"code":130123,"lat":38.14445,"level":3,"lng":114.57296,"mergerName":"中国,河北省,石家庄市,正定县","name":"正定县","parentCode":130100,"pinYin":"Zhengding","shortName":"正定"},{"code":130125,"lat":38.43654,"level":3,"lng":114.55316,"mergerName":"中国,河北省,石家庄市,行唐县","name":"行唐县","parentCode":130100,"pinYin":"Xingtang","shortName":"行唐"},{"code":130126,"lat":38.30845,"level":3,"lng":114.38259,"mergerName":"中国,河北省,石家庄市,灵寿县","name":"灵寿县","parentCode":130100,"pinYin":"Lingshou","shortName":"灵寿"},{"code":130127,"lat":37.61556,"level":3,"lng":114.61142,"mergerName":"中国,河北省,石家庄市,高邑县","name":"高邑县","parentCode":130100,"pinYin":"Gaoyi","shortName":"高邑"},{"code":130128,"lat":38.18353,"level":3,"lng":115.20358,"mergerName":"中国,河北省,石家庄市,深泽县","name":"深泽县","parentCode":130100,"pinYin":"Shenze","shortName":"深泽"},{"code":130129,"lat":37.66135,"level":3,"lng":114.38775,"mergerName":"中国,河北省,石家庄市,赞皇县","name":"赞皇县","parentCode":130100,"pinYin":"Zanhuang","shortName":"赞皇"},{"code":130130,"lat":38.17653,"level":3,"lng":114.97509,"mergerName":"中国,河北省,石家庄市,无极县","name":"无极县","parentCode":130100,"pinYin":"Wuji","shortName":"无极"},{"code":130131,"lat":38.25994,"level":3,"lng":114.186,"mergerName":"中国,河北省,石家庄市,平山县","name":"平山县","parentCode":130100,"pinYin":"Pingshan","shortName":"平山"},{"code":130132,"lat":37.76668,"level":3,"lng":114.52539,"mergerName":"中国,河北省,石家庄市,元氏县","name":"元氏县","parentCode":130100,"pinYin":"Yuanshi","shortName":"元氏"},{"code":130133,"lat":37.75628,"level":3,"lng":114.77612,"mergerName":"中国,河北省,石家庄市,赵县","name":"赵县","parentCode":130100,"pinYin":"Zhaoxian","shortName":"赵县"},{"code":130181,"lat":37.94079,"level":3,"lng":115.20626,"mergerName":"中国,河北省,石家庄市,辛集市","name":"辛集市","parentCode":130100,"pinYin":"Xinji","shortName":"辛集"},{"code":130183,"lat":38.03135,"level":3,"lng":115.04348,"mergerName":"中国,河北省,石家庄市,晋州市","name":"晋州市","parentCode":130100,"pinYin":"Jinzhou","shortName":"晋州"},{"code":130184,"lat":38.34417,"level":3,"lng":114.68985,"mergerName":"中国,河北省,石家庄市,新乐市","name":"新乐市","parentCode":130100,"pinYin":"Xinle","shortName":"新乐"},{"code":130200,"lat":39.635113,"level":2,"lng":118.175393,"mergerName":"中国,河北省,唐山市","name":"唐山市","parentCode":130000,"pinYin":"Tangshan","shortName":"唐山"},{"code":130202,"lat":39.62505,"level":3,"lng":118.15431,"mergerName":"中国,河北省,唐山市,路南区","name":"路南区","parentCode":130200,"pinYin":"Lunan","shortName":"路南"},{"code":130203,"lat":39.62436,"level":3,"lng":118.20079,"mergerName":"中国,河北省,唐山市,路北区","name":"路北区","parentCode":130200,"pinYin":"Lubei","shortName":"路北"},{"code":130204,"lat":39.71993,"level":3,"lng":118.45803,"mergerName":"中国,河北省,唐山市,古冶区","name":"古冶区","parentCode":130200,"pinYin":"Guye","shortName":"古冶"},{"code":130205,"lat":39.67128,"level":3,"lng":118.26171,"mergerName":"中国,河北省,唐山市,开平区","name":"开平区","parentCode":130200,"pinYin":"Kaiping","shortName":"开平"},{"code":130207,"lat":39.56483,"level":3,"lng":118.11282,"mergerName":"中国,河北省,唐山市,丰南区","name":"丰南区","parentCode":130200,"pinYin":"Fengnan","shortName":"丰南"},{"code":130208,"lat":39.8244,"level":3,"lng":118.12976,"mergerName":"中国,河北省,唐山市,丰润区","name":"丰润区","parentCode":130200,"pinYin":"Fengrun","shortName":"丰润"},{"code":130209,"lat":39.27307,"level":3,"lng":118.460379,"mergerName":"中国,河北省,唐山市,曹妃甸区","name":"曹妃甸区","parentCode":130200,"pinYin":"Caofeidian","shortName":"曹妃甸"},{"code":130223,"lat":39.74056,"level":3,"lng":118.70346,"mergerName":"中国,河北省,唐山市,滦县","name":"滦县","parentCode":130200,"pinYin":"Luanxian","shortName":"滦县"},{"code":130224,"lat":39.5039,"level":3,"lng":118.6741,"mergerName":"中国,河北省,唐山市,滦南县","name":"滦南县","parentCode":130200,"pinYin":"Luannan","shortName":"滦南"},{"code":130225,"lat":39.42561,"level":3,"lng":118.9125,"mergerName":"中国,河北省,唐山市,乐亭县","name":"乐亭县","parentCode":130200,"pinYin":"Laoting","shortName":"乐亭"},{"code":130227,"lat":40.14587,"level":3,"lng":118.31616,"mergerName":"中国,河北省,唐山市,迁西县","name":"迁西县","parentCode":130200,"pinYin":"Qianxi","shortName":"迁西"},{"code":130229,"lat":39.90049,"level":3,"lng":117.7388,"mergerName":"中国,河北省,唐山市,玉田县","name":"玉田县","parentCode":130200,"pinYin":"Yutian","shortName":"玉田"},{"code":130281,"lat":40.18741,"level":3,"lng":117.96444,"mergerName":"中国,河北省,唐山市,遵化市","name":"遵化市","parentCode":130200,"pinYin":"Zunhua","shortName":"遵化"},{"code":130283,"lat":39.99833,"level":3,"lng":118.70068,"mergerName":"中国,河北省,唐山市,迁安市","name":"迁安市","parentCode":130200,"pinYin":"Qianan","shortName":"迁安"},{"code":130300,"lat":39.942531,"level":2,"lng":119.586579,"mergerName":"中国,河北省,秦皇岛市","name":"秦皇岛市","parentCode":130000,"pinYin":"Qinhuangdao","shortName":"秦皇岛"},{"code":130302,"lat":39.9345,"level":3,"lng":119.61046,"mergerName":"中国,河北省,秦皇岛市,海港区","name":"海港区","parentCode":130300,"pinYin":"Haigang","shortName":"海港"},{"code":130303,"lat":39.97869,"level":3,"lng":119.77563,"mergerName":"中国,河北省,秦皇岛市,山海关区","name":"山海关区","parentCode":130300,"pinYin":"Shanhaiguan","shortName":"山海关"},{"code":130304,"lat":39.83408,"level":3,"lng":119.48388,"mergerName":"中国,河北省,秦皇岛市,北戴河区","name":"北戴河区","parentCode":130300,"pinYin":"Beidaihe","shortName":"北戴河"},{"code":130321,"lat":40.40743,"level":3,"lng":118.95242,"mergerName":"中国,河北省,秦皇岛市,青龙满族自治县","name":"青龙满族自治县","parentCode":130300,"pinYin":"Qinglong","shortName":"青龙"},{"code":130322,"lat":39.70884,"level":3,"lng":119.16595,"mergerName":"中国,河北省,秦皇岛市,昌黎县","name":"昌黎县","parentCode":130300,"pinYin":"Changli","shortName":"昌黎"},{"code":130323,"lat":39.87538,"level":3,"lng":119.24487,"mergerName":"中国,河北省,秦皇岛市,抚宁县","name":"抚宁县","parentCode":130300,"pinYin":"Funing","shortName":"抚宁"},{"code":130324,"lat":39.89176,"level":3,"lng":118.89288,"mergerName":"中国,河北省,秦皇岛市,卢龙县","name":"卢龙县","parentCode":130300,"pinYin":"Lulong","shortName":"卢龙"},{"code":130400,"lat":36.612273,"level":2,"lng":114.490686,"mergerName":"中国,河北省,邯郸市","name":"邯郸市","parentCode":130000,"pinYin":"Handan","shortName":"邯郸"},{"code":130402,"lat":36.60006,"level":3,"lng":114.48375,"mergerName":"中国,河北省,邯郸市,邯山区","name":"邯山区","parentCode":130400,"pinYin":"Hanshan","shortName":"邯山"},{"code":130403,"lat":36.61847,"level":3,"lng":114.49343,"mergerName":"中国,河北省,邯郸市,丛台区","name":"丛台区","parentCode":130400,"pinYin":"Congtai","shortName":"丛台"},{"code":130404,"lat":36.61134,"level":3,"lng":114.45928,"mergerName":"中国,河北省,邯郸市,复兴区","name":"复兴区","parentCode":130400,"pinYin":"Fuxing","shortName":"复兴"},{"code":130406,"lat":36.41937,"level":3,"lng":114.21148,"mergerName":"中国,河北省,邯郸市,峰峰矿区","name":"峰峰矿区","parentCode":130400,"pinYin":"Fengfengkuangqu","shortName":"峰峰矿区"},{"code":130421,"lat":36.59385,"level":3,"lng":114.53103,"mergerName":"中国,河北省,邯郸市,邯郸县","name":"邯郸县","parentCode":130400,"pinYin":"Handan","shortName":"邯郸"},{"code":130423,"lat":36.33461,"level":3,"lng":114.6195,"mergerName":"中国,河北省,邯郸市,临漳县","name":"临漳县","parentCode":130400,"pinYin":"Linzhang","shortName":"临漳"},{"code":130424,"lat":36.44411,"level":3,"lng":114.66995,"mergerName":"中国,河北省,邯郸市,成安县","name":"成安县","parentCode":130400,"pinYin":"Chengan","shortName":"成安"},{"code":130425,"lat":36.27994,"level":3,"lng":115.15362,"mergerName":"中国,河北省,邯郸市,大名县","name":"大名县","parentCode":130400,"pinYin":"Daming","shortName":"大名"},{"code":130426,"lat":36.58072,"level":3,"lng":113.69183,"mergerName":"中国,河北省,邯郸市,涉县","name":"涉县","parentCode":130400,"pinYin":"Shexian","shortName":"涉县"},{"code":130427,"lat":36.37392,"level":3,"lng":114.37387,"mergerName":"中国,河北省,邯郸市,磁县","name":"磁县","parentCode":130400,"pinYin":"Cixian","shortName":"磁县"},{"code":130428,"lat":36.54807,"level":3,"lng":114.79998,"mergerName":"中国,河北省,邯郸市,肥乡县","name":"肥乡县","parentCode":130400,"pinYin":"Feixiang","shortName":"肥乡"},{"code":130429,"lat":36.78356,"level":3,"lng":114.48925,"mergerName":"中国,河北省,邯郸市,永年县","name":"永年县","parentCode":130400,"pinYin":"Yongnian","shortName":"永年"},{"code":130430,"lat":36.82082,"level":3,"lng":115.17407,"mergerName":"中国,河北省,邯郸市,邱县","name":"邱县","parentCode":130400,"pinYin":"Qiuxian","shortName":"邱县"},{"code":130431,"lat":36.92374,"level":3,"lng":114.8742,"mergerName":"中国,河北省,邯郸市,鸡泽县","name":"鸡泽县","parentCode":130400,"pinYin":"Jize","shortName":"鸡泽"},{"code":130432,"lat":36.48046,"level":3,"lng":114.94653,"mergerName":"中国,河北省,邯郸市,广平县","name":"广平县","parentCode":130400,"pinYin":"Guangping","shortName":"广平"},{"code":130433,"lat":36.53719,"level":3,"lng":115.29913,"mergerName":"中国,河北省,邯郸市,馆陶县","name":"馆陶县","parentCode":130400,"pinYin":"Guantao","shortName":"馆陶"},{"code":130434,"lat":36.36171,"level":3,"lng":114.93518,"mergerName":"中国,河北省,邯郸市,魏县","name":"魏县","parentCode":130400,"pinYin":"Weixian","shortName":"魏县"},{"code":130435,"lat":36.77671,"level":3,"lng":114.95196,"mergerName":"中国,河北省,邯郸市,曲周县","name":"曲周县","parentCode":130400,"pinYin":"Quzhou","shortName":"曲周"},{"code":130481,"lat":36.69281,"level":3,"lng":114.20153,"mergerName":"中国,河北省,邯郸市,武安市","name":"武安市","parentCode":130400,"pinYin":"Wuan","shortName":"武安"},{"code":130500,"lat":37.0682,"level":2,"lng":114.508851,"mergerName":"中国,河北省,邢台市","name":"邢台市","parentCode":130000,"pinYin":"Xingtai","shortName":"邢台"},{"code":130502,"lat":37.06801,"level":3,"lng":114.50725,"mergerName":"中国,河北省,邢台市,桥东区","name":"桥东区","parentCode":130500,"pinYin":"Qiaodong","shortName":"桥东"},{"code":130503,"lat":37.05984,"level":3,"lng":114.46803,"mergerName":"中国,河北省,邢台市,桥西区","name":"桥西区","parentCode":130500,"pinYin":"Qiaoxi","shortName":"桥西"},{"code":130521,"lat":37.0456,"level":3,"lng":114.56575,"mergerName":"中国,河北省,邢台市,邢台县","name":"邢台县","parentCode":130500,"pinYin":"Xingtai","shortName":"邢台"},{"code":130522,"lat":37.43977,"level":3,"lng":114.50387,"mergerName":"中国,河北省,邢台市,临城县","name":"临城县","parentCode":130500,"pinYin":"Lincheng","shortName":"临城"},{"code":130523,"lat":37.28671,"level":3,"lng":114.51212,"mergerName":"中国,河北省,邢台市,内丘县","name":"内丘县","parentCode":130500,"pinYin":"Neiqiu","shortName":"内丘"},{"code":130524,"lat":37.48242,"level":3,"lng":114.69332,"mergerName":"中国,河北省,邢台市,柏乡县","name":"柏乡县","parentCode":130500,"pinYin":"Baixiang","shortName":"柏乡"},{"code":130525,"lat":37.35351,"level":3,"lng":114.77615,"mergerName":"中国,河北省,邢台市,隆尧县","name":"隆尧县","parentCode":130500,"pinYin":"Longyao","shortName":"隆尧"},{"code":130526,"lat":37.12575,"level":3,"lng":114.6842,"mergerName":"中国,河北省,邢台市,任县","name":"任县","parentCode":130500,"pinYin":"Renxian","shortName":"任县"},{"code":130527,"lat":37.00488,"level":3,"lng":114.68371,"mergerName":"中国,河北省,邢台市,南和县","name":"南和县","parentCode":130500,"pinYin":"Nanhe","shortName":"南和"},{"code":130528,"lat":37.61696,"level":3,"lng":114.92117,"mergerName":"中国,河北省,邢台市,宁晋县","name":"宁晋县","parentCode":130500,"pinYin":"Ningjin","shortName":"宁晋"},{"code":130529,"lat":37.21801,"level":3,"lng":115.03524,"mergerName":"中国,河北省,邢台市,巨鹿县","name":"巨鹿县","parentCode":130500,"pinYin":"Julu","shortName":"巨鹿"},{"code":130530,"lat":37.52718,"level":3,"lng":115.24987,"mergerName":"中国,河北省,邢台市,新河县","name":"新河县","parentCode":130500,"pinYin":"Xinhe","shortName":"新河"},{"code":130531,"lat":37.0746,"level":3,"lng":115.14254,"mergerName":"中国,河北省,邢台市,广宗县","name":"广宗县","parentCode":130500,"pinYin":"Guangzong","shortName":"广宗"},{"code":130532,"lat":37.06317,"level":3,"lng":115.03002,"mergerName":"中国,河北省,邢台市,平乡县","name":"平乡县","parentCode":130500,"pinYin":"Pingxiang","shortName":"平乡"},{"code":130533,"lat":36.9768,"level":3,"lng":115.2637,"mergerName":"中国,河北省,邢台市,威县","name":"威县","parentCode":130500,"pinYin":"Weixian","shortName":"威县"},{"code":130534,"lat":37.07122,"level":3,"lng":115.66479,"mergerName":"中国,河北省,邢台市,清河县","name":"清河县","parentCode":130500,"pinYin":"Qinghe","shortName":"清河"},{"code":130535,"lat":36.87078,"level":3,"lng":115.50097,"mergerName":"中国,河北省,邢台市,临西县","name":"临西县","parentCode":130500,"pinYin":"Linxi","shortName":"临西"},{"code":130581,"lat":37.35799,"level":3,"lng":115.39068,"mergerName":"中国,河北省,邢台市,南宫市","name":"南宫市","parentCode":130500,"pinYin":"Nangong","shortName":"南宫"},{"code":130582,"lat":36.8577,"level":3,"lng":114.4981,"mergerName":"中国,河北省,邢台市,沙河市","name":"沙河市","parentCode":130500,"pinYin":"Shahe","shortName":"沙河"},{"code":130600,"lat":38.867657,"level":2,"lng":115.482331,"mergerName":"中国,河北省,保定市","name":"保定市","parentCode":130000,"pinYin":"Baoding","shortName":"保定"},{"code":130602,"lat":38.87751,"level":3,"lng":115.4587,"mergerName":"中国,河北省,保定市,新市区","name":"新市区","parentCode":130600,"pinYin":"Xinshi","shortName":"新市"},{"code":130603,"lat":38.88322,"level":3,"lng":115.49715,"mergerName":"中国,河北省,保定市,北市区","name":"北市区","parentCode":130600,"pinYin":"Beishi","shortName":"北市"},{"code":130604,"lat":38.85455,"level":3,"lng":115.52859,"mergerName":"中国,河北省,保定市,南市区","name":"南市区","parentCode":130600,"pinYin":"Nanshi","shortName":"南市"},{"code":130621,"lat":38.94972,"level":3,"lng":115.32296,"mergerName":"中国,河北省,保定市,满城县","name":"满城县","parentCode":130600,"pinYin":"Mancheng","shortName":"满城"},{"code":130622,"lat":38.76709,"level":3,"lng":115.49267,"mergerName":"中国,河北省,保定市,清苑县","name":"清苑县","parentCode":130600,"pinYin":"Qingyuan","shortName":"清苑"},{"code":130623,"lat":39.39404,"level":3,"lng":115.71517,"mergerName":"中国,河北省,保定市,涞水县","name":"涞水县","parentCode":130600,"pinYin":"Laishui","shortName":"涞水"},{"code":130624,"lat":38.84763,"level":3,"lng":114.19683,"mergerName":"中国,河北省,保定市,阜平县","name":"阜平县","parentCode":130600,"pinYin":"Fuping","shortName":"阜平"},{"code":130625,"lat":39.02099,"level":3,"lng":115.65829,"mergerName":"中国,河北省,保定市,徐水县","name":"徐水县","parentCode":130600,"pinYin":"Xushui","shortName":"徐水"},{"code":130626,"lat":39.26312,"level":3,"lng":115.80786,"mergerName":"中国,河北省,保定市,定兴县","name":"定兴县","parentCode":130600,"pinYin":"Dingxing","shortName":"定兴"},{"code":130627,"lat":38.74513,"level":3,"lng":114.98516,"mergerName":"中国,河北省,保定市,唐县","name":"唐县","parentCode":130600,"pinYin":"Tangxian","shortName":"唐县"},{"code":130628,"lat":38.70003,"level":3,"lng":115.7788,"mergerName":"中国,河北省,保定市,高阳县","name":"高阳县","parentCode":130600,"pinYin":"Gaoyang","shortName":"高阳"},{"code":130629,"lat":39.0535,"level":3,"lng":115.87158,"mergerName":"中国,河北省,保定市,容城县","name":"容城县","parentCode":130600,"pinYin":"Rongcheng","shortName":"容城"},{"code":130630,"lat":39.35388,"level":3,"lng":114.69128,"mergerName":"中国,河北省,保定市,涞源县","name":"涞源县","parentCode":130600,"pinYin":"Laiyuan","shortName":"涞源"},{"code":130631,"lat":38.70996,"level":3,"lng":115.1567,"mergerName":"中国,河北省,保定市,望都县","name":"望都县","parentCode":130600,"pinYin":"Wangdu","shortName":"望都"},{"code":130632,"lat":38.93532,"level":3,"lng":115.93557,"mergerName":"中国,河北省,保定市,安新县","name":"安新县","parentCode":130600,"pinYin":"Anxin","shortName":"安新"},{"code":130633,"lat":39.34885,"level":3,"lng":115.4981,"mergerName":"中国,河北省,保定市,易县","name":"易县","parentCode":130600,"pinYin":"Yixian","shortName":"易县"},{"code":130634,"lat":38.62154,"level":3,"lng":114.70123,"mergerName":"中国,河北省,保定市,曲阳县","name":"曲阳县","parentCode":130600,"pinYin":"Quyang","shortName":"曲阳"},{"code":130635,"lat":38.48974,"level":3,"lng":115.57717,"mergerName":"中国,河北省,保定市,蠡县","name":"蠡县","parentCode":130600,"pinYin":"Lixian","shortName":"蠡县"},{"code":130636,"lat":38.83854,"level":3,"lng":115.1347,"mergerName":"中国,河北省,保定市,顺平县","name":"顺平县","parentCode":130600,"pinYin":"Shunping","shortName":"顺平"},{"code":130637,"lat":38.4564,"level":3,"lng":115.47033,"mergerName":"中国,河北省,保定市,博野县","name":"博野县","parentCode":130600,"pinYin":"Boye","shortName":"博野"},{"code":130638,"lat":38.99442,"level":3,"lng":116.10873,"mergerName":"中国,河北省,保定市,雄县","name":"雄县","parentCode":130600,"pinYin":"Xiongxian","shortName":"雄县"},{"code":130681,"lat":39.48622,"level":3,"lng":115.98062,"mergerName":"中国,河北省,保定市,涿州市","name":"涿州市","parentCode":130600,"pinYin":"Zhuozhou","shortName":"涿州"},{"code":130682,"lat":38.51623,"level":3,"lng":114.9902,"mergerName":"中国,河北省,保定市,定州市","name":"定州市","parentCode":130600,"pinYin":"Dingzhou","shortName":"定州"},{"code":130683,"lat":38.41391,"level":3,"lng":115.32321,"mergerName":"中国,河北省,保定市,安国市","name":"安国市","parentCode":130600,"pinYin":"Anguo","shortName":"安国"},{"code":130684,"lat":39.32655,"level":3,"lng":115.87368,"mergerName":"中国,河北省,保定市,高碑店市","name":"高碑店市","parentCode":130600,"pinYin":"Gaobeidian","shortName":"高碑店"},{"code":130700,"lat":40.811901,"level":2,"lng":114.884091,"mergerName":"中国,河北省,张家口市","name":"张家口市","parentCode":130000,"pinYin":"Zhangjiakou","shortName":"张家口"},{"code":130702,"lat":40.78844,"level":3,"lng":114.8943,"mergerName":"中国,河北省,张家口市,桥东区","name":"桥东区","parentCode":130700,"pinYin":"Qiaodong","shortName":"桥东"},{"code":130703,"lat":40.81945,"level":3,"lng":114.86962,"mergerName":"中国,河北省,张家口市,桥西区","name":"桥西区","parentCode":130700,"pinYin":"Qiaoxi","shortName":"桥西"},{"code":130705,"lat":40.60957,"level":3,"lng":115.06543,"mergerName":"中国,河北省,张家口市,宣化区","name":"宣化区","parentCode":130700,"pinYin":"Xuanhua","shortName":"宣化"},{"code":130706,"lat":40.50236,"level":3,"lng":115.28744,"mergerName":"中国,河北省,张家口市,下花园区","name":"下花园区","parentCode":130700,"pinYin":"Xiahuayuan","shortName":"下花园"},{"code":130721,"lat":40.56618,"level":3,"lng":115.15497,"mergerName":"中国,河北省,张家口市,宣化县","name":"宣化县","parentCode":130700,"pinYin":"Xuanhua","shortName":"宣化"},{"code":130722,"lat":41.15977,"level":3,"lng":114.71432,"mergerName":"中国,河北省,张家口市,张北县","name":"张北县","parentCode":130700,"pinYin":"Zhangbei","shortName":"张北"},{"code":130723,"lat":41.85225,"level":3,"lng":114.60031,"mergerName":"中国,河北省,张家口市,康保县","name":"康保县","parentCode":130700,"pinYin":"Kangbao","shortName":"康保"},{"code":130724,"lat":41.66959,"level":3,"lng":115.68859,"mergerName":"中国,河北省,张家口市,沽源县","name":"沽源县","parentCode":130700,"pinYin":"Guyuan","shortName":"沽源"},{"code":130725,"lat":41.07782,"level":3,"lng":113.97134,"mergerName":"中国,河北省,张家口市,尚义县","name":"尚义县","parentCode":130700,"pinYin":"Shangyi","shortName":"尚义"},{"code":130726,"lat":39.84067,"level":3,"lng":114.58892,"mergerName":"中国,河北省,张家口市,蔚县","name":"蔚县","parentCode":130700,"pinYin":"Yuxian","shortName":"蔚县"},{"code":130727,"lat":40.10361,"level":3,"lng":114.15051,"mergerName":"中国,河北省,张家口市,阳原县","name":"阳原县","parentCode":130700,"pinYin":"Yangyuan","shortName":"阳原"},{"code":130728,"lat":40.67425,"level":3,"lng":114.38559,"mergerName":"中国,河北省,张家口市,怀安县","name":"怀安县","parentCode":130700,"pinYin":"Huaian","shortName":"怀安"},{"code":130729,"lat":40.76694,"level":3,"lng":114.7405,"mergerName":"中国,河北省,张家口市,万全县","name":"万全县","parentCode":130700,"pinYin":"Wanquan","shortName":"万全"},{"code":130730,"lat":40.41536,"level":3,"lng":115.51773,"mergerName":"中国,河北省,张家口市,怀来县","name":"怀来县","parentCode":130700,"pinYin":"Huailai","shortName":"怀来"},{"code":130731,"lat":40.37636,"level":3,"lng":115.22403,"mergerName":"中国,河北省,张家口市,涿鹿县","name":"涿鹿县","parentCode":130700,"pinYin":"Zhuolu","shortName":"涿鹿"},{"code":130732,"lat":40.91438,"level":3,"lng":115.83187,"mergerName":"中国,河北省,张家口市,赤城县","name":"赤城县","parentCode":130700,"pinYin":"Chicheng","shortName":"赤城"},{"code":130733,"lat":40.97519,"level":3,"lng":115.27993,"mergerName":"中国,河北省,张家口市,崇礼县","name":"崇礼县","parentCode":130700,"pinYin":"Chongli","shortName":"崇礼"},{"code":130800,"lat":40.976204,"level":2,"lng":117.939152,"mergerName":"中国,河北省,承德市","name":"承德市","parentCode":130000,"pinYin":"Chengde","shortName":"承德"},{"code":130802,"lat":40.97466,"level":3,"lng":117.9432,"mergerName":"中国,河北省,承德市,双桥区","name":"双桥区","parentCode":130800,"pinYin":"Shuangqiao","shortName":"双桥"},{"code":130803,"lat":40.95375,"level":3,"lng":117.74487,"mergerName":"中国,河北省,承德市,双滦区","name":"双滦区","parentCode":130800,"pinYin":"Shuangluan","shortName":"双滦"},{"code":130804,"lat":40.54744,"level":3,"lng":117.65985,"mergerName":"中国,河北省,承德市,鹰手营子矿区","name":"鹰手营子矿区","parentCode":130800,"pinYin":"Yingshouyingzikuangqu","shortName":"鹰手营子矿区"},{"code":130821,"lat":40.76985,"level":3,"lng":118.17639,"mergerName":"中国,河北省,承德市,承德县","name":"承德县","parentCode":130800,"pinYin":"Chengde","shortName":"承德"},{"code":130822,"lat":40.41709,"level":3,"lng":117.50073,"mergerName":"中国,河北省,承德市,兴隆县","name":"兴隆县","parentCode":130800,"pinYin":"Xinglong","shortName":"兴隆"},{"code":130823,"lat":41.01839,"level":3,"lng":118.70196,"mergerName":"中国,河北省,承德市,平泉县","name":"平泉县","parentCode":130800,"pinYin":"Pingquan","shortName":"平泉"},{"code":130824,"lat":40.94148,"level":3,"lng":117.33276,"mergerName":"中国,河北省,承德市,滦平县","name":"滦平县","parentCode":130800,"pinYin":"Luanping","shortName":"滦平"},{"code":130825,"lat":41.31412,"level":3,"lng":117.7297,"mergerName":"中国,河北省,承德市,隆化县","name":"隆化县","parentCode":130800,"pinYin":"Longhua","shortName":"隆化"},{"code":130826,"lat":41.20481,"level":3,"lng":116.6492,"mergerName":"中国,河北省,承德市,丰宁满族自治县","name":"丰宁满族自治县","parentCode":130800,"pinYin":"Fengning","shortName":"丰宁"},{"code":130827,"lat":40.60829,"level":3,"lng":118.49176,"mergerName":"中国,河北省,承德市,宽城满族自治县","name":"宽城满族自治县","parentCode":130800,"pinYin":"Kuancheng","shortName":"宽城"},{"code":130828,"lat":41.94368,"level":3,"lng":117.7601,"mergerName":"中国,河北省,承德市,围场满族蒙古族自治县","name":"围场满族蒙古族自治县","parentCode":130800,"pinYin":"Weichang","shortName":"围场"},{"code":130900,"lat":38.310582,"level":2,"lng":116.857461,"mergerName":"中国,河北省,沧州市","name":"沧州市","parentCode":130000,"pinYin":"Cangzhou","shortName":"沧州"},{"code":130902,"lat":38.31438,"level":3,"lng":116.86643,"mergerName":"中国,河北省,沧州市,新华区","name":"新华区","parentCode":130900,"pinYin":"Xinhua","shortName":"新华"},{"code":130903,"lat":38.31352,"level":3,"lng":116.85706,"mergerName":"中国,河北省,沧州市,运河区","name":"运河区","parentCode":130900,"pinYin":"Yunhe","shortName":"运河"},{"code":130921,"lat":38.29361,"level":3,"lng":116.87817,"mergerName":"中国,河北省,沧州市,沧县","name":"沧县","parentCode":130900,"pinYin":"Cangxian","shortName":"沧县"},{"code":130922,"lat":38.58345,"level":3,"lng":116.80316,"mergerName":"中国,河北省,沧州市,青县","name":"青县","parentCode":130900,"pinYin":"Qingxian","shortName":"青县"},{"code":130923,"lat":37.8857,"level":3,"lng":116.53668,"mergerName":"中国,河北省,沧州市,东光县","name":"东光县","parentCode":130900,"pinYin":"Dongguang","shortName":"东光"},{"code":130924,"lat":38.13958,"level":3,"lng":117.49758,"mergerName":"中国,河北省,沧州市,海兴县","name":"海兴县","parentCode":130900,"pinYin":"Haixing","shortName":"海兴"},{"code":130925,"lat":38.05647,"level":3,"lng":117.23092,"mergerName":"中国,河北省,沧州市,盐山县","name":"盐山县","parentCode":130900,"pinYin":"Yanshan","shortName":"盐山"},{"code":130926,"lat":38.42272,"level":3,"lng":115.82971,"mergerName":"中国,河北省,沧州市,肃宁县","name":"肃宁县","parentCode":130900,"pinYin":"Suning","shortName":"肃宁"},{"code":130927,"lat":38.04109,"level":3,"lng":116.70224,"mergerName":"中国,河北省,沧州市,南皮县","name":"南皮县","parentCode":130900,"pinYin":"Nanpi","shortName":"南皮"},{"code":130928,"lat":37.62546,"level":3,"lng":116.3847,"mergerName":"中国,河北省,沧州市,吴桥县","name":"吴桥县","parentCode":130900,"pinYin":"Wuqiao","shortName":"吴桥"},{"code":130929,"lat":38.19228,"level":3,"lng":116.12695,"mergerName":"中国,河北省,沧州市,献县","name":"献县","parentCode":130900,"pinYin":"Xianxian","shortName":"献县"},{"code":130930,"lat":38.05338,"level":3,"lng":117.10412,"mergerName":"中国,河北省,沧州市,孟村回族自治县","name":"孟村回族自治县","parentCode":130900,"pinYin":"Mengcun","shortName":"孟村"},{"code":130981,"lat":38.08359,"level":3,"lng":116.57824,"mergerName":"中国,河北省,沧州市,泊头市","name":"泊头市","parentCode":130900,"pinYin":"Botou","shortName":"泊头"},{"code":130982,"lat":38.71124,"level":3,"lng":116.1033,"mergerName":"中国,河北省,沧州市,任丘市","name":"任丘市","parentCode":130900,"pinYin":"Renqiu","shortName":"任丘"},{"code":130983,"lat":38.3706,"level":3,"lng":117.33883,"mergerName":"中国,河北省,沧州市,黄骅市","name":"黄骅市","parentCode":130900,"pinYin":"Huanghua","shortName":"黄骅"},{"code":130984,"lat":38.44549,"level":3,"lng":116.0993,"mergerName":"中国,河北省,沧州市,河间市","name":"河间市","parentCode":130900,"pinYin":"Hejian","shortName":"河间"},{"code":131000,"lat":39.529244,"level":2,"lng":116.713873,"mergerName":"中国,河北省,廊坊市","name":"廊坊市","parentCode":130000,"pinYin":"Langfang","shortName":"廊坊"},{"code":131002,"lat":39.52057,"level":3,"lng":116.70308,"mergerName":"中国,河北省,廊坊市,安次区","name":"安次区","parentCode":131000,"pinYin":"Anci","shortName":"安次"},{"code":131003,"lat":39.52278,"level":3,"lng":116.71069,"mergerName":"中国,河北省,廊坊市,广阳区","name":"广阳区","parentCode":131000,"pinYin":"Guangyang","shortName":"广阳"},{"code":131022,"lat":39.43833,"level":3,"lng":116.29916,"mergerName":"中国,河北省,廊坊市,固安县","name":"固安县","parentCode":131000,"pinYin":"Guan","shortName":"固安"},{"code":131023,"lat":39.32069,"level":3,"lng":116.50091,"mergerName":"中国,河北省,廊坊市,永清县","name":"永清县","parentCode":131000,"pinYin":"Yongqing","shortName":"永清"},{"code":131024,"lat":39.76133,"level":3,"lng":117.00634,"mergerName":"中国,河北省,廊坊市,香河县","name":"香河县","parentCode":131000,"pinYin":"Xianghe","shortName":"香河"},{"code":131025,"lat":38.70534,"level":3,"lng":116.65353,"mergerName":"中国,河北省,廊坊市,大城县","name":"大城县","parentCode":131000,"pinYin":"Daicheng","shortName":"大城"},{"code":131026,"lat":38.87325,"level":3,"lng":116.45846,"mergerName":"中国,河北省,廊坊市,文安县","name":"文安县","parentCode":131000,"pinYin":"Wenan","shortName":"文安"},{"code":131028,"lat":39.88649,"level":3,"lng":116.98916,"mergerName":"中国,河北省,廊坊市,大厂回族自治县","name":"大厂回族自治县","parentCode":131000,"pinYin":"Dachang","shortName":"大厂"},{"code":131081,"lat":39.12569,"level":3,"lng":116.39154,"mergerName":"中国,河北省,廊坊市,霸州市","name":"霸州市","parentCode":131000,"pinYin":"Bazhou","shortName":"霸州"},{"code":131082,"lat":39.98358,"level":3,"lng":117.07229,"mergerName":"中国,河北省,廊坊市,三河市","name":"三河市","parentCode":131000,"pinYin":"Sanhe","shortName":"三河"},{"code":131100,"lat":37.735097,"level":2,"lng":115.665993,"mergerName":"中国,河北省,衡水市","name":"衡水市","parentCode":130000,"pinYin":"Hengshui","shortName":"衡水"},{"code":131102,"lat":37.73499,"level":3,"lng":115.67529,"mergerName":"中国,河北省,衡水市,桃城区","name":"桃城区","parentCode":131100,"pinYin":"Taocheng","shortName":"桃城"},{"code":131121,"lat":37.51027,"level":3,"lng":115.72576,"mergerName":"中国,河北省,衡水市,枣强县","name":"枣强县","parentCode":131100,"pinYin":"Zaoqiang","shortName":"枣强"},{"code":131122,"lat":37.80181,"level":3,"lng":115.88748,"mergerName":"中国,河北省,衡水市,武邑县","name":"武邑县","parentCode":131100,"pinYin":"Wuyi","shortName":"武邑"},{"code":131123,"lat":38.04138,"level":3,"lng":115.98226,"mergerName":"中国,河北省,衡水市,武强县","name":"武强县","parentCode":131100,"pinYin":"Wuqiang","shortName":"武强"},{"code":131124,"lat":38.23529,"level":3,"lng":115.72558,"mergerName":"中国,河北省,衡水市,饶阳县","name":"饶阳县","parentCode":131100,"pinYin":"Raoyang","shortName":"饶阳"},{"code":131125,"lat":38.23388,"level":3,"lng":115.51876,"mergerName":"中国,河北省,衡水市,安平县","name":"安平县","parentCode":131100,"pinYin":"Anping","shortName":"安平"},{"code":131126,"lat":37.34773,"level":3,"lng":115.97076,"mergerName":"中国,河北省,衡水市,故城县","name":"故城县","parentCode":131100,"pinYin":"Gucheng","shortName":"故城"},{"code":131127,"lat":37.6926,"level":3,"lng":116.26904,"mergerName":"中国,河北省,衡水市,景县","name":"景县","parentCode":131100,"pinYin":"Jingxian","shortName":"景县"},{"code":131128,"lat":37.86881,"level":3,"lng":116.14431,"mergerName":"中国,河北省,衡水市,阜城县","name":"阜城县","parentCode":131100,"pinYin":"Fucheng","shortName":"阜城"},{"code":131181,"lat":37.55082,"level":3,"lng":115.57934,"mergerName":"中国,河北省,衡水市,冀州市","name":"冀州市","parentCode":131100,"pinYin":"Jizhou","shortName":"冀州"},{"code":131182,"lat":38.00109,"level":3,"lng":115.55993,"mergerName":"中国,河北省,衡水市,深州市","name":"深州市","parentCode":131100,"pinYin":"Shenzhou","shortName":"深州"},{"code":140000,"lat":37.857014,"level":1,"lng":112.549248,"mergerName":"中国,山西省","name":"山西省","parentCode":100000,"pinYin":"Shanxi","shortName":"山西"},{"code":140100,"lat":37.857014,"level":2,"lng":112.549248,"mergerName":"中国,山西省,太原市","name":"太原市","parentCode":140000,"pinYin":"Taiyuan","shortName":"太原"},{"code":140105,"lat":37.73565,"level":3,"lng":112.56878,"mergerName":"中国,山西省,太原市,小店区","name":"小店区","parentCode":140100,"pinYin":"Xiaodian","shortName":"小店"},{"code":140106,"lat":37.86326,"level":3,"lng":112.56338,"mergerName":"中国,山西省,太原市,迎泽区","name":"迎泽区","parentCode":140100,"pinYin":"Yingze","shortName":"迎泽"},{"code":140107,"lat":37.88429,"level":3,"lng":112.56237,"mergerName":"中国,山西省,太原市,杏花岭区","name":"杏花岭区","parentCode":140100,"pinYin":"Xinghualing","shortName":"杏花岭"},{"code":140108,"lat":37.94193,"level":3,"lng":112.48709,"mergerName":"中国,山西省,太原市,尖草坪区","name":"尖草坪区","parentCode":140100,"pinYin":"Jiancaoping","shortName":"尖草坪"},{"code":140109,"lat":37.85923,"level":3,"lng":112.51553,"mergerName":"中国,山西省,太原市,万柏林区","name":"万柏林区","parentCode":140100,"pinYin":"Wanbailin","shortName":"万柏林"},{"code":140110,"lat":37.72479,"level":3,"lng":112.47985,"mergerName":"中国,山西省,太原市,晋源区","name":"晋源区","parentCode":140100,"pinYin":"Jinyuan","shortName":"晋源"},{"code":140121,"lat":37.60758,"level":3,"lng":112.35888,"mergerName":"中国,山西省,太原市,清徐县","name":"清徐县","parentCode":140100,"pinYin":"Qingxu","shortName":"清徐"},{"code":140122,"lat":38.05989,"level":3,"lng":112.67861,"mergerName":"中国,山西省,太原市,阳曲县","name":"阳曲县","parentCode":140100,"pinYin":"Yangqu","shortName":"阳曲"},{"code":140123,"lat":38.06689,"level":3,"lng":111.79473,"mergerName":"中国,山西省,太原市,娄烦县","name":"娄烦县","parentCode":140100,"pinYin":"Loufan","shortName":"娄烦"},{"code":140181,"lat":37.90983,"level":3,"lng":112.16918,"mergerName":"中国,山西省,太原市,古交市","name":"古交市","parentCode":140100,"pinYin":"Gujiao","shortName":"古交"},{"code":140200,"lat":40.09031,"level":2,"lng":113.295259,"mergerName":"中国,山西省,大同市","name":"大同市","parentCode":140000,"pinYin":"Datong","shortName":"大同"},{"code":140202,"lat":40.07566,"level":3,"lng":113.298,"mergerName":"中国,山西省,大同市,城区","name":"城区","parentCode":140200,"pinYin":"Chengqu","shortName":"城区"},{"code":140203,"lat":40.03685,"level":3,"lng":113.1772,"mergerName":"中国,山西省,大同市,矿区","name":"矿区","parentCode":140200,"pinYin":"Kuangqu","shortName":"矿区"},{"code":140211,"lat":40.00539,"level":3,"lng":113.14947,"mergerName":"中国,山西省,大同市,南郊区","name":"南郊区","parentCode":140200,"pinYin":"Nanjiao","shortName":"南郊"},{"code":140212,"lat":40.25618,"level":3,"lng":113.13504,"mergerName":"中国,山西省,大同市,新荣区","name":"新荣区","parentCode":140200,"pinYin":"Xinrong","shortName":"新荣"},{"code":140221,"lat":40.36256,"level":3,"lng":113.75012,"mergerName":"中国,山西省,大同市,阳高县","name":"阳高县","parentCode":140200,"pinYin":"Yanggao","shortName":"阳高"},{"code":140222,"lat":40.42299,"level":3,"lng":114.0931,"mergerName":"中国,山西省,大同市,天镇县","name":"天镇县","parentCode":140200,"pinYin":"Tianzhen","shortName":"天镇"},{"code":140223,"lat":39.76082,"level":3,"lng":114.28204,"mergerName":"中国,山西省,大同市,广灵县","name":"广灵县","parentCode":140200,"pinYin":"Guangling","shortName":"广灵"},{"code":140224,"lat":39.44043,"level":3,"lng":114.23672,"mergerName":"中国,山西省,大同市,灵丘县","name":"灵丘县","parentCode":140200,"pinYin":"Lingqiu","shortName":"灵丘"},{"code":140225,"lat":39.69962,"level":3,"lng":113.69552,"mergerName":"中国,山西省,大同市,浑源县","name":"浑源县","parentCode":140200,"pinYin":"Hunyuan","shortName":"浑源"},{"code":140226,"lat":40.01336,"level":3,"lng":112.70266,"mergerName":"中国,山西省,大同市,左云县","name":"左云县","parentCode":140200,"pinYin":"Zuoyun","shortName":"左云"},{"code":140227,"lat":40.04012,"level":3,"lng":113.61212,"mergerName":"中国,山西省,大同市,大同县","name":"大同县","parentCode":140200,"pinYin":"Datong","shortName":"大同"},{"code":140300,"lat":37.861188,"level":2,"lng":113.583285,"mergerName":"中国,山西省,阳泉市","name":"阳泉市","parentCode":140000,"pinYin":"Yangquan","shortName":"阳泉"},{"code":140302,"lat":37.8474,"level":3,"lng":113.60069,"mergerName":"中国,山西省,阳泉市,城区","name":"城区","parentCode":140300,"pinYin":"Chengqu","shortName":"城区"},{"code":140303,"lat":37.86895,"level":3,"lng":113.55677,"mergerName":"中国,山西省,阳泉市,矿区","name":"矿区","parentCode":140300,"pinYin":"Kuangqu","shortName":"矿区"},{"code":140311,"lat":37.94139,"level":3,"lng":113.58539,"mergerName":"中国,山西省,阳泉市,郊区","name":"郊区","parentCode":140300,"pinYin":"Jiaoqu","shortName":"郊区"},{"code":140321,"lat":37.78601,"level":3,"lng":113.65789,"mergerName":"中国,山西省,阳泉市,平定县","name":"平定县","parentCode":140300,"pinYin":"Pingding","shortName":"平定"},{"code":140322,"lat":38.08579,"level":3,"lng":113.41235,"mergerName":"中国,山西省,阳泉市,盂县","name":"盂县","parentCode":140300,"pinYin":"Yuxian","shortName":"盂县"},{"code":140400,"lat":36.191112,"level":2,"lng":113.113556,"mergerName":"中国,山西省,长治市","name":"长治市","parentCode":140000,"pinYin":"Changzhi","shortName":"长治"},{"code":140402,"lat":36.20351,"level":3,"lng":113.12308,"mergerName":"中国,山西省,长治市,城区","name":"城区","parentCode":140400,"pinYin":"Chengqu","shortName":"城区"},{"code":140411,"lat":36.19918,"level":3,"lng":113.12653,"mergerName":"中国,山西省,长治市,郊区","name":"郊区","parentCode":140400,"pinYin":"Jiaoqu","shortName":"郊区"},{"code":140421,"lat":36.04722,"level":3,"lng":113.04791,"mergerName":"中国,山西省,长治市,长治县","name":"长治县","parentCode":140400,"pinYin":"Changzhi","shortName":"长治"},{"code":140423,"lat":36.53527,"level":3,"lng":113.05157,"mergerName":"中国,山西省,长治市,襄垣县","name":"襄垣县","parentCode":140400,"pinYin":"Xiangyuan","shortName":"襄垣"},{"code":140424,"lat":36.31579,"level":3,"lng":112.89196,"mergerName":"中国,山西省,长治市,屯留县","name":"屯留县","parentCode":140400,"pinYin":"Tunliu","shortName":"屯留"},{"code":140425,"lat":36.20005,"level":3,"lng":113.43603,"mergerName":"中国,山西省,长治市,平顺县","name":"平顺县","parentCode":140400,"pinYin":"Pingshun","shortName":"平顺"},{"code":140426,"lat":36.50301,"level":3,"lng":113.38766,"mergerName":"中国,山西省,长治市,黎城县","name":"黎城县","parentCode":140400,"pinYin":"Licheng","shortName":"黎城"},{"code":140427,"lat":36.11301,"level":3,"lng":113.207,"mergerName":"中国,山西省,长治市,壶关县","name":"壶关县","parentCode":140400,"pinYin":"Huguan","shortName":"壶关"},{"code":140428,"lat":36.12125,"level":3,"lng":112.87731,"mergerName":"中国,山西省,长治市,长子县","name":"长子县","parentCode":140400,"pinYin":"Zhangzi","shortName":"长子"},{"code":140429,"lat":36.83687,"level":3,"lng":112.86343,"mergerName":"中国,山西省,长治市,武乡县","name":"武乡县","parentCode":140400,"pinYin":"Wuxiang","shortName":"武乡"},{"code":140430,"lat":36.75628,"level":3,"lng":112.69863,"mergerName":"中国,山西省,长治市,沁县","name":"沁县","parentCode":140400,"pinYin":"Qinxian","shortName":"沁县"},{"code":140431,"lat":36.50008,"level":3,"lng":112.33758,"mergerName":"中国,山西省,长治市,沁源县","name":"沁源县","parentCode":140400,"pinYin":"Qinyuan","shortName":"沁源"},{"code":140481,"lat":36.33414,"level":3,"lng":113.22888,"mergerName":"中国,山西省,长治市,潞城市","name":"潞城市","parentCode":140400,"pinYin":"Lucheng","shortName":"潞城"},{"code":140500,"lat":35.497553,"level":2,"lng":112.851274,"mergerName":"中国,山西省,晋城市","name":"晋城市","parentCode":140000,"pinYin":"Jincheng","shortName":"晋城"},{"code":140502,"lat":35.50175,"level":3,"lng":112.85319,"mergerName":"中国,山西省,晋城市,城区","name":"城区","parentCode":140500,"pinYin":"Chengqu","shortName":"城区"},{"code":140521,"lat":35.69102,"level":3,"lng":112.1871,"mergerName":"中国,山西省,晋城市,沁水县","name":"沁水县","parentCode":140500,"pinYin":"Qinshui","shortName":"沁水"},{"code":140522,"lat":35.48614,"level":3,"lng":112.41485,"mergerName":"中国,山西省,晋城市,阳城县","name":"阳城县","parentCode":140500,"pinYin":"Yangcheng","shortName":"阳城"},{"code":140524,"lat":35.77532,"level":3,"lng":113.2806,"mergerName":"中国,山西省,晋城市,陵川县","name":"陵川县","parentCode":140500,"pinYin":"Lingchuan","shortName":"陵川"},{"code":140525,"lat":35.50789,"level":3,"lng":112.83947,"mergerName":"中国,山西省,晋城市,泽州县","name":"泽州县","parentCode":140500,"pinYin":"Zezhou","shortName":"泽州"},{"code":140581,"lat":35.79705,"level":3,"lng":112.92288,"mergerName":"中国,山西省,晋城市,高平市","name":"高平市","parentCode":140500,"pinYin":"Gaoping","shortName":"高平"},{"code":140600,"lat":39.331261,"level":2,"lng":112.433387,"mergerName":"中国,山西省,朔州市","name":"朔州市","parentCode":140000,"pinYin":"Shuozhou","shortName":"朔州"},{"code":140602,"lat":39.31982,"level":3,"lng":112.43189,"mergerName":"中国,山西省,朔州市,朔城区","name":"朔城区","parentCode":140600,"pinYin":"Shuocheng","shortName":"朔城"},{"code":140603,"lat":39.51155,"level":3,"lng":112.28833,"mergerName":"中国,山西省,朔州市,平鲁区","name":"平鲁区","parentCode":140600,"pinYin":"Pinglu","shortName":"平鲁"},{"code":140621,"lat":39.52697,"level":3,"lng":112.81662,"mergerName":"中国,山西省,朔州市,山阴县","name":"山阴县","parentCode":140600,"pinYin":"Shanyin","shortName":"山阴"},{"code":140622,"lat":39.55279,"level":3,"lng":113.19052,"mergerName":"中国,山西省,朔州市,应县","name":"应县","parentCode":140600,"pinYin":"Yingxian","shortName":"应县"},{"code":140623,"lat":39.99011,"level":3,"lng":112.46902,"mergerName":"中国,山西省,朔州市,右玉县","name":"右玉县","parentCode":140600,"pinYin":"Youyu","shortName":"右玉"},{"code":140624,"lat":39.82806,"level":3,"lng":113.10009,"mergerName":"中国,山西省,朔州市,怀仁县","name":"怀仁县","parentCode":140600,"pinYin":"Huairen","shortName":"怀仁"},{"code":140700,"lat":37.696495,"level":2,"lng":112.736465,"mergerName":"中国,山西省,晋中市","name":"晋中市","parentCode":140000,"pinYin":"Jinzhong","shortName":"晋中"},{"code":140702,"lat":37.6978,"level":3,"lng":112.70788,"mergerName":"中国,山西省,晋中市,榆次区","name":"榆次区","parentCode":140700,"pinYin":"Yuci","shortName":"榆次"},{"code":140721,"lat":37.0721,"level":3,"lng":112.97558,"mergerName":"中国,山西省,晋中市,榆社县","name":"榆社县","parentCode":140700,"pinYin":"Yushe","shortName":"榆社"},{"code":140722,"lat":37.08235,"level":3,"lng":113.37918,"mergerName":"中国,山西省,晋中市,左权县","name":"左权县","parentCode":140700,"pinYin":"Zuoquan","shortName":"左权"},{"code":140723,"lat":37.32963,"level":3,"lng":113.56988,"mergerName":"中国,山西省,晋中市,和顺县","name":"和顺县","parentCode":140700,"pinYin":"Heshun","shortName":"和顺"},{"code":140724,"lat":37.61863,"level":3,"lng":113.70517,"mergerName":"中国,山西省,晋中市,昔阳县","name":"昔阳县","parentCode":140700,"pinYin":"Xiyang","shortName":"昔阳"},{"code":140725,"lat":37.88899,"level":3,"lng":113.17495,"mergerName":"中国,山西省,晋中市,寿阳县","name":"寿阳县","parentCode":140700,"pinYin":"Shouyang","shortName":"寿阳"},{"code":140726,"lat":37.42161,"level":3,"lng":112.55246,"mergerName":"中国,山西省,晋中市,太谷县","name":"太谷县","parentCode":140700,"pinYin":"Taigu","shortName":"太谷"},{"code":140727,"lat":37.3579,"level":3,"lng":112.33358,"mergerName":"中国,山西省,晋中市,祁县","name":"祁县","parentCode":140700,"pinYin":"Qixian","shortName":"祁县"},{"code":140728,"lat":37.1892,"level":3,"lng":112.17553,"mergerName":"中国,山西省,晋中市,平遥县","name":"平遥县","parentCode":140700,"pinYin":"Pingyao","shortName":"平遥"},{"code":140729,"lat":36.84814,"level":3,"lng":111.7774,"mergerName":"中国,山西省,晋中市,灵石县","name":"灵石县","parentCode":140700,"pinYin":"Lingshi","shortName":"灵石"},{"code":140781,"lat":37.02771,"level":3,"lng":111.91824,"mergerName":"中国,山西省,晋中市,介休市","name":"介休市","parentCode":140700,"pinYin":"Jiexiu","shortName":"介休"},{"code":140800,"lat":35.022778,"level":2,"lng":111.003957,"mergerName":"中国,山西省,运城市","name":"运城市","parentCode":140000,"pinYin":"Yuncheng","shortName":"运城"},{"code":140802,"lat":35.0151,"level":3,"lng":110.99827,"mergerName":"中国,山西省,运城市,盐湖区","name":"盐湖区","parentCode":140800,"pinYin":"Yanhu","shortName":"盐湖"},{"code":140821,"lat":35.14455,"level":3,"lng":110.77432,"mergerName":"中国,山西省,运城市,临猗县","name":"临猗县","parentCode":140800,"pinYin":"Linyi","shortName":"临猗"},{"code":140822,"lat":35.41556,"level":3,"lng":110.83657,"mergerName":"中国,山西省,运城市,万荣县","name":"万荣县","parentCode":140800,"pinYin":"Wanrong","shortName":"万荣"},{"code":140823,"lat":35.35553,"level":3,"lng":111.22265,"mergerName":"中国,山西省,运城市,闻喜县","name":"闻喜县","parentCode":140800,"pinYin":"Wenxi","shortName":"闻喜"},{"code":140824,"lat":35.59993,"level":3,"lng":110.97924,"mergerName":"中国,山西省,运城市,稷山县","name":"稷山县","parentCode":140800,"pinYin":"Jishan","shortName":"稷山"},{"code":140825,"lat":35.61566,"level":3,"lng":111.22509,"mergerName":"中国,山西省,运城市,新绛县","name":"新绛县","parentCode":140800,"pinYin":"Xinjiang","shortName":"新绛"},{"code":140826,"lat":35.49096,"level":3,"lng":111.56668,"mergerName":"中国,山西省,运城市,绛县","name":"绛县","parentCode":140800,"pinYin":"Jiangxian","shortName":"绛县"},{"code":140827,"lat":35.29923,"level":3,"lng":111.67166,"mergerName":"中国,山西省,运城市,垣曲县","name":"垣曲县","parentCode":140800,"pinYin":"Yuanqu","shortName":"垣曲"},{"code":140828,"lat":35.14121,"level":3,"lng":111.21966,"mergerName":"中国,山西省,运城市,夏县","name":"夏县","parentCode":140800,"pinYin":"Xiaxian","shortName":"夏县"},{"code":140829,"lat":34.83772,"level":3,"lng":111.21704,"mergerName":"中国,山西省,运城市,平陆县","name":"平陆县","parentCode":140800,"pinYin":"Pinglu","shortName":"平陆"},{"code":140830,"lat":34.69384,"level":3,"lng":110.69455,"mergerName":"中国,山西省,运城市,芮城县","name":"芮城县","parentCode":140800,"pinYin":"Ruicheng","shortName":"芮城"},{"code":140881,"lat":34.86556,"level":3,"lng":110.44537,"mergerName":"中国,山西省,运城市,永济市","name":"永济市","parentCode":140800,"pinYin":"Yongji","shortName":"永济"},{"code":140882,"lat":35.59478,"level":3,"lng":110.7116,"mergerName":"中国,山西省,运城市,河津市","name":"河津市","parentCode":140800,"pinYin":"Hejin","shortName":"河津"},{"code":140900,"lat":38.41769,"level":2,"lng":112.733538,"mergerName":"中国,山西省,忻州市","name":"忻州市","parentCode":140000,"pinYin":"Xinzhou","shortName":"忻州"},{"code":140902,"lat":38.40414,"level":3,"lng":112.74603,"mergerName":"中国,山西省,忻州市,忻府区","name":"忻府区","parentCode":140900,"pinYin":"Xinfu","shortName":"忻府"},{"code":140921,"lat":38.47387,"level":3,"lng":112.95733,"mergerName":"中国,山西省,忻州市,定襄县","name":"定襄县","parentCode":140900,"pinYin":"Dingxiang","shortName":"定襄"},{"code":140922,"lat":38.72774,"level":3,"lng":113.25256,"mergerName":"中国,山西省,忻州市,五台县","name":"五台县","parentCode":140900,"pinYin":"Wutai","shortName":"五台"},{"code":140923,"lat":39.06717,"level":3,"lng":112.95913,"mergerName":"中国,山西省,忻州市,代县","name":"代县","parentCode":140900,"pinYin":"Daixian","shortName":"代县"},{"code":140924,"lat":39.18886,"level":3,"lng":113.26303,"mergerName":"中国,山西省,忻州市,繁峙县","name":"繁峙县","parentCode":140900,"pinYin":"Fanshi","shortName":"繁峙"},{"code":140925,"lat":39.00211,"level":3,"lng":112.30423,"mergerName":"中国,山西省,忻州市,宁武县","name":"宁武县","parentCode":140900,"pinYin":"Ningwu","shortName":"宁武"},{"code":140926,"lat":38.3602,"level":3,"lng":111.94158,"mergerName":"中国,山西省,忻州市,静乐县","name":"静乐县","parentCode":140900,"pinYin":"Jingle","shortName":"静乐"},{"code":140927,"lat":39.09,"level":3,"lng":112.20541,"mergerName":"中国,山西省,忻州市,神池县","name":"神池县","parentCode":140900,"pinYin":"Shenchi","shortName":"神池"},{"code":140928,"lat":38.90757,"level":3,"lng":111.8489,"mergerName":"中国,山西省,忻州市,五寨县","name":"五寨县","parentCode":140900,"pinYin":"Wuzhai","shortName":"五寨"},{"code":140929,"lat":38.70452,"level":3,"lng":111.57388,"mergerName":"中国,山西省,忻州市,岢岚县","name":"岢岚县","parentCode":140900,"pinYin":"Kelan","shortName":"岢岚"},{"code":140930,"lat":39.38439,"level":3,"lng":111.13821,"mergerName":"中国,山西省,忻州市,河曲县","name":"河曲县","parentCode":140900,"pinYin":"Hequ","shortName":"河曲"},{"code":140931,"lat":39.02248,"level":3,"lng":111.08656,"mergerName":"中国,山西省,忻州市,保德县","name":"保德县","parentCode":140900,"pinYin":"Baode","shortName":"保德"},{"code":140932,"lat":39.43609,"level":3,"lng":111.50863,"mergerName":"中国,山西省,忻州市,偏关县","name":"偏关县","parentCode":140900,"pinYin":"Pianguan","shortName":"偏关"},{"code":140981,"lat":38.73181,"level":3,"lng":112.70584,"mergerName":"中国,山西省,忻州市,原平市","name":"原平市","parentCode":140900,"pinYin":"Yuanping","shortName":"原平"},{"code":141000,"lat":36.08415,"level":2,"lng":111.517973,"mergerName":"中国,山西省,临汾市","name":"临汾市","parentCode":140000,"pinYin":"Linfen","shortName":"临汾"},{"code":141002,"lat":36.08298,"level":3,"lng":111.5787,"mergerName":"中国,山西省,临汾市,尧都区","name":"尧都区","parentCode":141000,"pinYin":"Yaodu","shortName":"尧都"},{"code":141021,"lat":35.64119,"level":3,"lng":111.47525,"mergerName":"中国,山西省,临汾市,曲沃县","name":"曲沃县","parentCode":141000,"pinYin":"Quwo","shortName":"曲沃"},{"code":141022,"lat":35.73881,"level":3,"lng":111.7181,"mergerName":"中国,山西省,临汾市,翼城县","name":"翼城县","parentCode":141000,"pinYin":"Yicheng","shortName":"翼城"},{"code":141023,"lat":35.87711,"level":3,"lng":111.44204,"mergerName":"中国,山西省,临汾市,襄汾县","name":"襄汾县","parentCode":141000,"pinYin":"Xiangfen","shortName":"襄汾"},{"code":141024,"lat":36.25425,"level":3,"lng":111.67501,"mergerName":"中国,山西省,临汾市,洪洞县","name":"洪洞县","parentCode":141000,"pinYin":"Hongtong","shortName":"洪洞"},{"code":141025,"lat":36.26688,"level":3,"lng":111.92041,"mergerName":"中国,山西省,临汾市,古县","name":"古县","parentCode":141000,"pinYin":"Guxian","shortName":"古县"},{"code":141026,"lat":36.14803,"level":3,"lng":112.24981,"mergerName":"中国,山西省,临汾市,安泽县","name":"安泽县","parentCode":141000,"pinYin":"Anze","shortName":"安泽"},{"code":141027,"lat":35.96854,"level":3,"lng":111.84744,"mergerName":"中国,山西省,临汾市,浮山县","name":"浮山县","parentCode":141000,"pinYin":"Fushan","shortName":"浮山"},{"code":141028,"lat":36.09873,"level":3,"lng":110.68148,"mergerName":"中国,山西省,临汾市,吉县","name":"吉县","parentCode":141000,"pinYin":"Jixian","shortName":"吉县"},{"code":141029,"lat":35.97072,"level":3,"lng":110.84652,"mergerName":"中国,山西省,临汾市,乡宁县","name":"乡宁县","parentCode":141000,"pinYin":"Xiangning","shortName":"乡宁"},{"code":141030,"lat":36.46624,"level":3,"lng":110.75216,"mergerName":"中国,山西省,临汾市,大宁县","name":"大宁县","parentCode":141000,"pinYin":"Daning","shortName":"大宁"},{"code":141031,"lat":36.69258,"level":3,"lng":110.93881,"mergerName":"中国,山西省,临汾市,隰县","name":"隰县","parentCode":141000,"pinYin":"Xixian","shortName":"隰县"},{"code":141032,"lat":36.7584,"level":3,"lng":110.63168,"mergerName":"中国,山西省,临汾市,永和县","name":"永和县","parentCode":141000,"pinYin":"Yonghe","shortName":"永和"},{"code":141033,"lat":36.41243,"level":3,"lng":111.09674,"mergerName":"中国,山西省,临汾市,蒲县","name":"蒲县","parentCode":141000,"pinYin":"Puxian","shortName":"蒲县"},{"code":141034,"lat":36.65063,"level":3,"lng":111.56811,"mergerName":"中国,山西省,临汾市,汾西县","name":"汾西县","parentCode":141000,"pinYin":"Fenxi","shortName":"汾西"},{"code":141081,"lat":35.61903,"level":3,"lng":111.37207,"mergerName":"中国,山西省,临汾市,侯马市","name":"侯马市","parentCode":141000,"pinYin":"Houma","shortName":"侯马"},{"code":141082,"lat":36.5638,"level":3,"lng":111.755,"mergerName":"中国,山西省,临汾市,霍州市","name":"霍州市","parentCode":141000,"pinYin":"Huozhou","shortName":"霍州"},{"code":141100,"lat":37.524366,"level":2,"lng":111.134335,"mergerName":"中国,山西省,吕梁市","name":"吕梁市","parentCode":140000,"pinYin":"Lvliang","shortName":"吕梁"},{"code":141102,"lat":37.5177,"level":3,"lng":111.15059,"mergerName":"中国,山西省,吕梁市,离石区","name":"离石区","parentCode":141100,"pinYin":"Lishi","shortName":"离石"},{"code":141121,"lat":37.43841,"level":3,"lng":112.02829,"mergerName":"中国,山西省,吕梁市,文水县","name":"文水县","parentCode":141100,"pinYin":"Wenshui","shortName":"文水"},{"code":141122,"lat":37.5512,"level":3,"lng":112.1585,"mergerName":"中国,山西省,吕梁市,交城县","name":"交城县","parentCode":141100,"pinYin":"Jiaocheng","shortName":"交城"},{"code":141123,"lat":38.46321,"level":3,"lng":111.12692,"mergerName":"中国,山西省,吕梁市,兴县","name":"兴县","parentCode":141100,"pinYin":"Xingxian","shortName":"兴县"},{"code":141124,"lat":37.95271,"level":3,"lng":110.99282,"mergerName":"中国,山西省,吕梁市,临县","name":"临县","parentCode":141100,"pinYin":"Linxian","shortName":"临县"},{"code":141125,"lat":37.42932,"level":3,"lng":110.88922,"mergerName":"中国,山西省,吕梁市,柳林县","name":"柳林县","parentCode":141100,"pinYin":"Liulin","shortName":"柳林"},{"code":141126,"lat":36.99731,"level":3,"lng":110.8352,"mergerName":"中国,山西省,吕梁市,石楼县","name":"石楼县","parentCode":141100,"pinYin":"Shilou","shortName":"石楼"},{"code":141127,"lat":38.27874,"level":3,"lng":111.67627,"mergerName":"中国,山西省,吕梁市,岚县","name":"岚县","parentCode":141100,"pinYin":"Lanxian","shortName":"岚县"},{"code":141128,"lat":37.88979,"level":3,"lng":111.24011,"mergerName":"中国,山西省,吕梁市,方山县","name":"方山县","parentCode":141100,"pinYin":"Fangshan","shortName":"方山"},{"code":141129,"lat":37.35715,"level":3,"lng":111.1795,"mergerName":"中国,山西省,吕梁市,中阳县","name":"中阳县","parentCode":141100,"pinYin":"Zhongyang","shortName":"中阳"},{"code":141130,"lat":36.98213,"level":3,"lng":111.18103,"mergerName":"中国,山西省,吕梁市,交口县","name":"交口县","parentCode":141100,"pinYin":"Jiaokou","shortName":"交口"},{"code":141181,"lat":37.14414,"level":3,"lng":111.77362,"mergerName":"中国,山西省,吕梁市,孝义市","name":"孝义市","parentCode":141100,"pinYin":"Xiaoyi","shortName":"孝义"},{"code":141182,"lat":37.26605,"level":3,"lng":111.7882,"mergerName":"中国,山西省,吕梁市,汾阳市","name":"汾阳市","parentCode":141100,"pinYin":"Fenyang","shortName":"汾阳"},{"code":150000,"lat":40.818311,"level":1,"lng":111.670801,"mergerName":"中国,内蒙古自治区","name":"内蒙古自治区","parentCode":100000,"pinYin":"Inner Mongolia","shortName":"内蒙古"},{"code":150100,"lat":40.818311,"level":2,"lng":111.670801,"mergerName":"中国,内蒙古自治区,呼和浩特市","name":"呼和浩特市","parentCode":150000,"pinYin":"Hohhot","shortName":"呼和浩特"},{"code":150102,"lat":40.85828,"level":3,"lng":111.66554,"mergerName":"中国,内蒙古自治区,呼和浩特市,新城区","name":"新城区","parentCode":150100,"pinYin":"Xincheng","shortName":"新城"},{"code":150103,"lat":40.80827,"level":3,"lng":111.62402,"mergerName":"中国,内蒙古自治区,呼和浩特市,回民区","name":"回民区","parentCode":150100,"pinYin":"Huimin","shortName":"回民"},{"code":150104,"lat":40.75227,"level":3,"lng":111.67456,"mergerName":"中国,内蒙古自治区,呼和浩特市,玉泉区","name":"玉泉区","parentCode":150100,"pinYin":"Yuquan","shortName":"玉泉"},{"code":150105,"lat":40.79207,"level":3,"lng":111.70224,"mergerName":"中国,内蒙古自治区,呼和浩特市,赛罕区","name":"赛罕区","parentCode":150100,"pinYin":"Saihan","shortName":"赛罕"},{"code":150121,"lat":40.72229,"level":3,"lng":111.14898,"mergerName":"中国,内蒙古自治区,呼和浩特市,土默特左旗","name":"土默特左旗","parentCode":150100,"pinYin":"Tumotezuoqi","shortName":"土默特左旗"},{"code":150122,"lat":40.27492,"level":3,"lng":111.19101,"mergerName":"中国,内蒙古自治区,呼和浩特市,托克托县","name":"托克托县","parentCode":150100,"pinYin":"Tuoketuo","shortName":"托克托"},{"code":150123,"lat":40.37892,"level":3,"lng":111.82205,"mergerName":"中国,内蒙古自治区,呼和浩特市,和林格尔县","name":"和林格尔县","parentCode":150100,"pinYin":"Helingeer","shortName":"和林格尔"},{"code":150124,"lat":39.9097,"level":3,"lng":111.68316,"mergerName":"中国,内蒙古自治区,呼和浩特市,清水河县","name":"清水河县","parentCode":150100,"pinYin":"Qingshuihe","shortName":"清水河"},{"code":150125,"lat":41.09289,"level":3,"lng":111.45785,"mergerName":"中国,内蒙古自治区,呼和浩特市,武川县","name":"武川县","parentCode":150100,"pinYin":"Wuchuan","shortName":"武川"},{"code":150200,"lat":40.658168,"level":2,"lng":109.840405,"mergerName":"中国,内蒙古自治区,包头市","name":"包头市","parentCode":150000,"pinYin":"Baotou","shortName":"包头"},{"code":150202,"lat":40.58237,"level":3,"lng":110.0462,"mergerName":"中国,内蒙古自治区,包头市,东河区","name":"东河区","parentCode":150200,"pinYin":"Donghe","shortName":"东河"},{"code":150203,"lat":40.64175,"level":3,"lng":109.83862,"mergerName":"中国,内蒙古自治区,包头市,昆都仑区","name":"昆都仑区","parentCode":150200,"pinYin":"Kundulun","shortName":"昆都仑"},{"code":150204,"lat":40.64329,"level":3,"lng":109.90131,"mergerName":"中国,内蒙古自治区,包头市,青山区","name":"青山区","parentCode":150200,"pinYin":"Qingshan","shortName":"青山"},{"code":150205,"lat":40.67297,"level":3,"lng":110.27322,"mergerName":"中国,内蒙古自治区,包头市,石拐区","name":"石拐区","parentCode":150200,"pinYin":"Shiguai","shortName":"石拐"},{"code":150206,"lat":41.76968,"level":3,"lng":109.97367,"mergerName":"中国,内蒙古自治区,包头市,白云鄂博矿区","name":"白云鄂博矿区","parentCode":150200,"pinYin":"Baiyunebokuangqu","shortName":"白云鄂博矿区"},{"code":150207,"lat":40.60554,"level":3,"lng":109.96496,"mergerName":"中国,内蒙古自治区,包头市,九原区","name":"九原区","parentCode":150200,"pinYin":"Jiuyuan","shortName":"九原"},{"code":150221,"lat":40.5688,"level":3,"lng":110.52417,"mergerName":"中国,内蒙古自治区,包头市,土默特右旗","name":"土默特右旗","parentCode":150200,"pinYin":"Tumoteyouqi","shortName":"土默特右旗"},{"code":150222,"lat":41.01851,"level":3,"lng":110.06372,"mergerName":"中国,内蒙古自治区,包头市,固阳县","name":"固阳县","parentCode":150200,"pinYin":"Guyang","shortName":"固阳"},{"code":150223,"lat":41.69875,"level":3,"lng":110.43258,"mergerName":"中国,内蒙古自治区,包头市,达尔罕茂明安联合旗","name":"达尔罕茂明安联合旗","parentCode":150200,"pinYin":"Damaoqi","shortName":"达茂旗"},{"code":150300,"lat":39.673734,"level":2,"lng":106.825563,"mergerName":"中国,内蒙古自治区,乌海市","name":"乌海市","parentCode":150000,"pinYin":"Wuhai","shortName":"乌海"},{"code":150302,"lat":39.66955,"level":3,"lng":106.8222,"mergerName":"中国,内蒙古自治区,乌海市,海勃湾区","name":"海勃湾区","parentCode":150300,"pinYin":"Haibowan","shortName":"海勃湾"},{"code":150303,"lat":39.44128,"level":3,"lng":106.88656,"mergerName":"中国,内蒙古自治区,乌海市,海南区","name":"海南区","parentCode":150300,"pinYin":"Hainan","shortName":"海南"},{"code":150304,"lat":39.505,"level":3,"lng":106.72723,"mergerName":"中国,内蒙古自治区,乌海市,乌达区","name":"乌达区","parentCode":150300,"pinYin":"Wuda","shortName":"乌达"},{"code":150400,"lat":42.275317,"level":2,"lng":118.956806,"mergerName":"中国,内蒙古自治区,赤峰市","name":"赤峰市","parentCode":150000,"pinYin":"Chifeng","shortName":"赤峰"},{"code":150402,"lat":42.24312,"level":3,"lng":118.95755,"mergerName":"中国,内蒙古自治区,赤峰市,红山区","name":"红山区","parentCode":150400,"pinYin":"Hongshan","shortName":"红山"},{"code":150403,"lat":42.04005,"level":3,"lng":119.28921,"mergerName":"中国,内蒙古自治区,赤峰市,元宝山区","name":"元宝山区","parentCode":150400,"pinYin":"Yuanbaoshan","shortName":"元宝山"},{"code":150404,"lat":42.28613,"level":3,"lng":118.9328,"mergerName":"中国,内蒙古自治区,赤峰市,松山区","name":"松山区","parentCode":150400,"pinYin":"Songshan","shortName":"松山"},{"code":150421,"lat":43.87988,"level":3,"lng":120.06527,"mergerName":"中国,内蒙古自治区,赤峰市,阿鲁科尔沁旗","name":"阿鲁科尔沁旗","parentCode":150400,"pinYin":"Alukeerqinqi","shortName":"阿鲁科尔沁旗"},{"code":150422,"lat":43.97031,"level":3,"lng":119.38012,"mergerName":"中国,内蒙古自治区,赤峰市,巴林左旗","name":"巴林左旗","parentCode":150400,"pinYin":"Balinzuoqi","shortName":"巴林左旗"},{"code":150423,"lat":43.53387,"level":3,"lng":118.66461,"mergerName":"中国,内蒙古自治区,赤峰市,巴林右旗","name":"巴林右旗","parentCode":150400,"pinYin":"Balinyouqi","shortName":"巴林右旗"},{"code":150424,"lat":43.61165,"level":3,"lng":118.04733,"mergerName":"中国,内蒙古自治区,赤峰市,林西县","name":"林西县","parentCode":150400,"pinYin":"Linxi","shortName":"林西"},{"code":150425,"lat":43.26501,"level":3,"lng":117.54562,"mergerName":"中国,内蒙古自治区,赤峰市,克什克腾旗","name":"克什克腾旗","parentCode":150400,"pinYin":"Keshiketengqi","shortName":"克什克腾旗"},{"code":150426,"lat":42.93147,"level":3,"lng":119.03042,"mergerName":"中国,内蒙古自治区,赤峰市,翁牛特旗","name":"翁牛特旗","parentCode":150400,"pinYin":"Wengniuteqi","shortName":"翁牛特旗"},{"code":150428,"lat":41.92917,"level":3,"lng":118.70144,"mergerName":"中国,内蒙古自治区,赤峰市,喀喇沁旗","name":"喀喇沁旗","parentCode":150400,"pinYin":"Kalaqinqi","shortName":"喀喇沁旗"},{"code":150429,"lat":41.59661,"level":3,"lng":119.34375,"mergerName":"中国,内蒙古自治区,赤峰市,宁城县","name":"宁城县","parentCode":150400,"pinYin":"Ningcheng","shortName":"宁城"},{"code":150430,"lat":42.29071,"level":3,"lng":119.92163,"mergerName":"中国,内蒙古自治区,赤峰市,敖汉旗","name":"敖汉旗","parentCode":150400,"pinYin":"Aohanqi","shortName":"敖汉旗"},{"code":150500,"lat":43.617429,"level":2,"lng":122.263119,"mergerName":"中国,内蒙古自治区,通辽市","name":"通辽市","parentCode":150000,"pinYin":"Tongliao","shortName":"通辽"},{"code":150502,"lat":43.62257,"level":3,"lng":122.25573,"mergerName":"中国,内蒙古自治区,通辽市,科尔沁区","name":"科尔沁区","parentCode":150500,"pinYin":"Keerqin","shortName":"科尔沁"},{"code":150521,"lat":44.13014,"level":3,"lng":123.31912,"mergerName":"中国,内蒙古自治区,通辽市,科尔沁左翼中旗","name":"科尔沁左翼中旗","parentCode":150500,"pinYin":"Keerqinzuoyizhongqi","shortName":"科尔沁左翼中旗"},{"code":150522,"lat":42.94897,"level":3,"lng":122.35745,"mergerName":"中国,内蒙古自治区,通辽市,科尔沁左翼后旗","name":"科尔沁左翼后旗","parentCode":150500,"pinYin":"Keerqinzuoyihouqi","shortName":"科尔沁左翼后旗"},{"code":150523,"lat":43.60003,"level":3,"lng":121.31884,"mergerName":"中国,内蒙古自治区,通辽市,开鲁县","name":"开鲁县","parentCode":150500,"pinYin":"Kailu","shortName":"开鲁"},{"code":150524,"lat":42.72998,"level":3,"lng":121.776,"mergerName":"中国,内蒙古自治区,通辽市,库伦旗","name":"库伦旗","parentCode":150500,"pinYin":"Kulunqi","shortName":"库伦旗"},{"code":150525,"lat":42.84527,"level":3,"lng":120.66348,"mergerName":"中国,内蒙古自治区,通辽市,奈曼旗","name":"奈曼旗","parentCode":150500,"pinYin":"Naimanqi","shortName":"奈曼旗"},{"code":150526,"lat":44.55592,"level":3,"lng":120.91507,"mergerName":"中国,内蒙古自治区,通辽市,扎鲁特旗","name":"扎鲁特旗","parentCode":150500,"pinYin":"Zhaluteqi","shortName":"扎鲁特旗"},{"code":150581,"lat":45.53454,"level":3,"lng":119.65429,"mergerName":"中国,内蒙古自治区,通辽市,霍林郭勒市","name":"霍林郭勒市","parentCode":150500,"pinYin":"Huolinguole","shortName":"霍林郭勒"},{"code":150600,"lat":39.817179,"level":2,"lng":109.99029,"mergerName":"中国,内蒙古自治区,鄂尔多斯市","name":"鄂尔多斯市","parentCode":150000,"pinYin":"Ordos","shortName":"鄂尔多斯"},{"code":150602,"lat":39.82236,"level":3,"lng":109.96289,"mergerName":"中国,内蒙古自治区,鄂尔多斯市,东胜区","name":"东胜区","parentCode":150600,"pinYin":"Dongsheng","shortName":"东胜"},{"code":150621,"lat":40.4001,"level":3,"lng":110.03317,"mergerName":"中国,内蒙古自治区,鄂尔多斯市,达拉特旗","name":"达拉特旗","parentCode":150600,"pinYin":"Dalateqi","shortName":"达拉特旗"},{"code":150622,"lat":39.86783,"level":3,"lng":111.23645,"mergerName":"中国,内蒙古自治区,鄂尔多斯市,准格尔旗","name":"准格尔旗","parentCode":150600,"pinYin":"Zhungeerqi","shortName":"准格尔旗"},{"code":150623,"lat":38.18396,"level":3,"lng":107.48403,"mergerName":"中国,内蒙古自治区,鄂尔多斯市,鄂托克前旗","name":"鄂托克前旗","parentCode":150600,"pinYin":"Etuokeqianqi","shortName":"鄂托克前旗"},{"code":150624,"lat":39.09456,"level":3,"lng":107.98226,"mergerName":"中国,内蒙古自治区,鄂尔多斯市,鄂托克旗","name":"鄂托克旗","parentCode":150600,"pinYin":"Etuokeqi","shortName":"鄂托克旗"},{"code":150625,"lat":39.84023,"level":3,"lng":108.72934,"mergerName":"中国,内蒙古自治区,鄂尔多斯市,杭锦旗","name":"杭锦旗","parentCode":150600,"pinYin":"Hangjinqi","shortName":"杭锦旗"},{"code":150626,"lat":38.59092,"level":3,"lng":108.8461,"mergerName":"中国,内蒙古自治区,鄂尔多斯市,乌审旗","name":"乌审旗","parentCode":150600,"pinYin":"Wushenqi","shortName":"乌审旗"},{"code":150627,"lat":39.57393,"level":3,"lng":109.74908,"mergerName":"中国,内蒙古自治区,鄂尔多斯市,伊金霍洛旗","name":"伊金霍洛旗","parentCode":150600,"pinYin":"Yijinhuoluoqi","shortName":"伊金霍洛旗"},{"code":150700,"lat":49.215333,"level":2,"lng":119.758168,"mergerName":"中国,内蒙古自治区,呼伦贝尔市","name":"呼伦贝尔市","parentCode":150000,"pinYin":"Hulunber","shortName":"呼伦贝尔"},{"code":150702,"lat":49.2122,"level":3,"lng":119.7364,"mergerName":"中国,内蒙古自治区,呼伦贝尔市,海拉尔区","name":"海拉尔区","parentCode":150700,"pinYin":"Hailaer","shortName":"海拉尔"},{"code":150703,"lat":49.486943,"level":3,"lng":117.792702,"mergerName":"中国,内蒙古自治区,呼伦贝尔市,扎赉诺尔区","name":"扎赉诺尔区","parentCode":150700,"pinYin":"Zhalainuoer","shortName":"扎赉诺尔"},{"code":150721,"lat":48.12581,"level":3,"lng":123.45941,"mergerName":"中国,内蒙古自治区,呼伦贝尔市,阿荣旗","name":"阿荣旗","parentCode":150700,"pinYin":"Arongqi","shortName":"阿荣旗"},{"code":150722,"lat":48.48055,"level":3,"lng":124.51498,"mergerName":"中国,内蒙古自治区,呼伦贝尔市,莫力达瓦达斡尔族自治旗","name":"莫力达瓦达斡尔族自治旗","parentCode":150700,"pinYin":"Moqi","shortName":"莫旗"},{"code":150723,"lat":50.59777,"level":3,"lng":123.72604,"mergerName":"中国,内蒙古自治区,呼伦贝尔市,鄂伦春自治旗","name":"鄂伦春自治旗","parentCode":150700,"pinYin":"Elunchun","shortName":"鄂伦春"},{"code":150724,"lat":49.14284,"level":3,"lng":119.7565,"mergerName":"中国,内蒙古自治区,呼伦贝尔市,鄂温克族自治旗","name":"鄂温克族自治旗","parentCode":150700,"pinYin":"Ewen","shortName":"鄂温"},{"code":150725,"lat":49.32684,"level":3,"lng":119.42434,"mergerName":"中国,内蒙古自治区,呼伦贝尔市,陈巴尔虎旗","name":"陈巴尔虎旗","parentCode":150700,"pinYin":"Chenbaerhuqi","shortName":"陈巴尔虎旗"},{"code":150726,"lat":48.21842,"level":3,"lng":118.26989,"mergerName":"中国,内蒙古自治区,呼伦贝尔市,新巴尔虎左旗","name":"新巴尔虎左旗","parentCode":150700,"pinYin":"Xinbaerhuzuoqi","shortName":"新巴尔虎左旗"},{"code":150727,"lat":48.66473,"level":3,"lng":116.82366,"mergerName":"中国,内蒙古自治区,呼伦贝尔市,新巴尔虎右旗","name":"新巴尔虎右旗","parentCode":150700,"pinYin":"Xinbaerhuyouqi","shortName":"新巴尔虎右旗"},{"code":150781,"lat":49.58272,"level":3,"lng":117.47946,"mergerName":"中国,内蒙古自治区,呼伦贝尔市,满洲里市","name":"满洲里市","parentCode":150700,"pinYin":"Manzhouli","shortName":"满洲里"},{"code":150782,"lat":49.2856,"level":3,"lng":120.7117,"mergerName":"中国,内蒙古自治区,呼伦贝尔市,牙克石市","name":"牙克石市","parentCode":150700,"pinYin":"Yakeshi","shortName":"牙克石"},{"code":150783,"lat":48.01363,"level":3,"lng":122.73757,"mergerName":"中国,内蒙古自治区,呼伦贝尔市,扎兰屯市","name":"扎兰屯市","parentCode":150700,"pinYin":"Zhalantun","shortName":"扎兰屯"},{"code":150784,"lat":50.24249,"level":3,"lng":120.19094,"mergerName":"中国,内蒙古自治区,呼伦贝尔市,额尔古纳市","name":"额尔古纳市","parentCode":150700,"pinYin":"Eerguna","shortName":"额尔古纳"},{"code":150785,"lat":50.77996,"level":3,"lng":121.52197,"mergerName":"中国,内蒙古自治区,呼伦贝尔市,根河市","name":"根河市","parentCode":150700,"pinYin":"Genhe","shortName":"根河"},{"code":150800,"lat":40.757402,"level":2,"lng":107.416959,"mergerName":"中国,内蒙古自治区,巴彦淖尔市","name":"巴彦淖尔市","parentCode":150000,"pinYin":"Bayan Nur","shortName":"巴彦淖尔"},{"code":150802,"lat":40.75827,"level":3,"lng":107.42668,"mergerName":"中国,内蒙古自治区,巴彦淖尔市,临河区","name":"临河区","parentCode":150800,"pinYin":"Linhe","shortName":"临河"},{"code":150821,"lat":41.09631,"level":3,"lng":108.26916,"mergerName":"中国,内蒙古自治区,巴彦淖尔市,五原县","name":"五原县","parentCode":150800,"pinYin":"Wuyuan","shortName":"五原"},{"code":150822,"lat":40.33062,"level":3,"lng":107.00936,"mergerName":"中国,内蒙古自治区,巴彦淖尔市,磴口县","name":"磴口县","parentCode":150800,"pinYin":"Dengkou","shortName":"磴口"},{"code":150823,"lat":40.73649,"level":3,"lng":108.65219,"mergerName":"中国,内蒙古自治区,巴彦淖尔市,乌拉特前旗","name":"乌拉特前旗","parentCode":150800,"pinYin":"Wulateqianqi","shortName":"乌拉特前旗"},{"code":150824,"lat":41.56789,"level":3,"lng":108.52587,"mergerName":"中国,内蒙古自治区,巴彦淖尔市,乌拉特中旗","name":"乌拉特中旗","parentCode":150800,"pinYin":"Wulatezhongqi","shortName":"乌拉特中旗"},{"code":150825,"lat":41.43151,"level":3,"lng":106.98971,"mergerName":"中国,内蒙古自治区,巴彦淖尔市,乌拉特后旗","name":"乌拉特后旗","parentCode":150800,"pinYin":"Wulatehouqi","shortName":"乌拉特后旗"},{"code":150826,"lat":40.88627,"level":3,"lng":107.15133,"mergerName":"中国,内蒙古自治区,巴彦淖尔市,杭锦后旗","name":"杭锦后旗","parentCode":150800,"pinYin":"Hangjinhouqi","shortName":"杭锦后旗"},{"code":150900,"lat":41.034126,"level":2,"lng":113.114543,"mergerName":"中国,内蒙古自治区,乌兰察布市","name":"乌兰察布市","parentCode":150000,"pinYin":"Ulanqab","shortName":"乌兰察布"},{"code":150902,"lat":41.0353,"level":3,"lng":113.11452,"mergerName":"中国,内蒙古自治区,乌兰察布市,集宁区","name":"集宁区","parentCode":150900,"pinYin":"Jining","shortName":"集宁"},{"code":150921,"lat":40.89414,"level":3,"lng":112.57757,"mergerName":"中国,内蒙古自治区,乌兰察布市,卓资县","name":"卓资县","parentCode":150900,"pinYin":"Zhuozi","shortName":"卓资"},{"code":150922,"lat":41.90433,"level":3,"lng":114.01071,"mergerName":"中国,内蒙古自治区,乌兰察布市,化德县","name":"化德县","parentCode":150900,"pinYin":"Huade","shortName":"化德"},{"code":150923,"lat":41.56213,"level":3,"lng":113.57772,"mergerName":"中国,内蒙古自治区,乌兰察布市,商都县","name":"商都县","parentCode":150900,"pinYin":"Shangdu","shortName":"商都"},{"code":150924,"lat":40.87186,"level":3,"lng":113.83395,"mergerName":"中国,内蒙古自治区,乌兰察布市,兴和县","name":"兴和县","parentCode":150900,"pinYin":"Xinghe","shortName":"兴和"},{"code":150925,"lat":40.53346,"level":3,"lng":112.49569,"mergerName":"中国,内蒙古自治区,乌兰察布市,凉城县","name":"凉城县","parentCode":150900,"pinYin":"Liangcheng","shortName":"凉城"},{"code":150926,"lat":40.7788,"level":3,"lng":113.22131,"mergerName":"中国,内蒙古自治区,乌兰察布市,察哈尔右翼前旗","name":"察哈尔右翼前旗","parentCode":150900,"pinYin":"Chayouqianqi","shortName":"察右前旗"},{"code":150927,"lat":41.27742,"level":3,"lng":112.63537,"mergerName":"中国,内蒙古自治区,乌兰察布市,察哈尔右翼中旗","name":"察哈尔右翼中旗","parentCode":150900,"pinYin":"Chayouzhongqi","shortName":"察右中旗"},{"code":150928,"lat":41.43554,"level":3,"lng":113.19216,"mergerName":"中国,内蒙古自治区,乌兰察布市,察哈尔右翼后旗","name":"察哈尔右翼后旗","parentCode":150900,"pinYin":"Chayouhouqi","shortName":"察右后旗"},{"code":150929,"lat":41.53312,"level":3,"lng":111.70654,"mergerName":"中国,内蒙古自治区,乌兰察布市,四子王旗","name":"四子王旗","parentCode":150900,"pinYin":"Siziwangqi","shortName":"四子王旗"},{"code":150981,"lat":40.4369,"level":3,"lng":113.10983,"mergerName":"中国,内蒙古自治区,乌兰察布市,丰镇市","name":"丰镇市","parentCode":150900,"pinYin":"Fengzhen","shortName":"丰镇"},{"code":152200,"lat":46.076268,"level":2,"lng":122.070317,"mergerName":"中国,内蒙古自治区,兴安盟","name":"兴安盟","parentCode":150000,"pinYin":"Hinggan","shortName":"兴安盟"},{"code":152201,"lat":46.06235,"level":3,"lng":122.06378,"mergerName":"中国,内蒙古自治区,兴安盟,乌兰浩特市","name":"乌兰浩特市","parentCode":152200,"pinYin":"Wulanhaote","shortName":"乌兰浩特"},{"code":152202,"lat":47.17716,"level":3,"lng":119.94317,"mergerName":"中国,内蒙古自治区,兴安盟,阿尔山市","name":"阿尔山市","parentCode":152200,"pinYin":"Aershan","shortName":"阿尔山"},{"code":152221,"lat":46.0795,"level":3,"lng":121.95269,"mergerName":"中国,内蒙古自治区,兴安盟,科尔沁右翼前旗","name":"科尔沁右翼前旗","parentCode":152200,"pinYin":"Keyouqianqi","shortName":"科右前旗"},{"code":152222,"lat":45.05605,"level":3,"lng":121.46807,"mergerName":"中国,内蒙古自治区,兴安盟,科尔沁右翼中旗","name":"科尔沁右翼中旗","parentCode":152200,"pinYin":"Keyouzhongqi","shortName":"科右中旗"},{"code":152223,"lat":46.7267,"level":3,"lng":122.91229,"mergerName":"中国,内蒙古自治区,兴安盟,扎赉特旗","name":"扎赉特旗","parentCode":152200,"pinYin":"Zhalaiteqi","shortName":"扎赉特旗"},{"code":152224,"lat":45.38187,"level":3,"lng":121.59396,"mergerName":"中国,内蒙古自治区,兴安盟,突泉县","name":"突泉县","parentCode":152200,"pinYin":"Tuquan","shortName":"突泉"},{"code":152500,"lat":43.944018,"level":2,"lng":116.090996,"mergerName":"中国,内蒙古自治区,锡林郭勒盟","name":"锡林郭勒盟","parentCode":150000,"pinYin":"Xilin Gol","shortName":"锡林郭勒盟"},{"code":152501,"lat":43.65303,"level":3,"lng":111.98297,"mergerName":"中国,内蒙古自治区,锡林郭勒盟,二连浩特市","name":"二连浩特市","parentCode":152500,"pinYin":"Erlianhaote","shortName":"二连浩特"},{"code":152502,"lat":43.93341,"level":3,"lng":116.08603,"mergerName":"中国,内蒙古自治区,锡林郭勒盟,锡林浩特市","name":"锡林浩特市","parentCode":152500,"pinYin":"Xilinhaote","shortName":"锡林浩特"},{"code":152522,"lat":44.02174,"level":3,"lng":114.96826,"mergerName":"中国,内蒙古自治区,锡林郭勒盟,阿巴嘎旗","name":"阿巴嘎旗","parentCode":152500,"pinYin":"Abagaqi","shortName":"阿巴嘎旗"},{"code":152523,"lat":43.85687,"level":3,"lng":113.6506,"mergerName":"中国,内蒙古自治区,锡林郭勒盟,苏尼特左旗","name":"苏尼特左旗","parentCode":152500,"pinYin":"Sunitezuoqi","shortName":"苏尼特左旗"},{"code":152524,"lat":42.7469,"level":3,"lng":112.65741,"mergerName":"中国,内蒙古自治区,锡林郭勒盟,苏尼特右旗","name":"苏尼特右旗","parentCode":152500,"pinYin":"Suniteyouqi","shortName":"苏尼特右旗"},{"code":152525,"lat":45.51108,"level":3,"lng":116.97293,"mergerName":"中国,内蒙古自治区,锡林郭勒盟,东乌珠穆沁旗","name":"东乌珠穆沁旗","parentCode":152500,"pinYin":"Dongwuqi","shortName":"东乌旗"},{"code":152526,"lat":44.59623,"level":3,"lng":117.60983,"mergerName":"中国,内蒙古自治区,锡林郭勒盟,西乌珠穆沁旗","name":"西乌珠穆沁旗","parentCode":152500,"pinYin":"Xiwuqi","shortName":"西乌旗"},{"code":152527,"lat":41.87727,"level":3,"lng":115.28302,"mergerName":"中国,内蒙古自治区,锡林郭勒盟,太仆寺旗","name":"太仆寺旗","parentCode":152500,"pinYin":"Taipusiqi","shortName":"太仆寺旗"},{"code":152528,"lat":42.23927,"level":3,"lng":113.84472,"mergerName":"中国,内蒙古自治区,锡林郭勒盟,镶黄旗","name":"镶黄旗","parentCode":152500,"pinYin":"Xianghuangqi","shortName":"镶黄旗"},{"code":152529,"lat":42.30712,"level":3,"lng":115.00067,"mergerName":"中国,内蒙古自治区,锡林郭勒盟,正镶白旗","name":"正镶白旗","parentCode":152500,"pinYin":"Zhengxiangbaiqi","shortName":"正镶白旗"},{"code":152530,"lat":42.25229,"level":3,"lng":116.00363,"mergerName":"中国,内蒙古自治区,锡林郭勒盟,正蓝旗","name":"正蓝旗","parentCode":152500,"pinYin":"Zhenglanqi","shortName":"正蓝旗"},{"code":152531,"lat":42.203,"level":3,"lng":116.48565,"mergerName":"中国,内蒙古自治区,锡林郭勒盟,多伦县","name":"多伦县","parentCode":152500,"pinYin":"Duolun","shortName":"多伦"},{"code":152900,"lat":38.844814,"level":2,"lng":105.706422,"mergerName":"中国,内蒙古自治区,阿拉善盟","name":"阿拉善盟","parentCode":150000,"pinYin":"Alxa","shortName":"阿拉善盟"},{"code":152921,"lat":38.8293,"level":3,"lng":105.67532,"mergerName":"中国,内蒙古自治区,阿拉善盟,阿拉善左旗","name":"阿拉善左旗","parentCode":152900,"pinYin":"Alashanzuoqi","shortName":"阿拉善左旗"},{"code":152922,"lat":39.21533,"level":3,"lng":101.66705,"mergerName":"中国,内蒙古自治区,阿拉善盟,阿拉善右旗","name":"阿拉善右旗","parentCode":152900,"pinYin":"Alashanyouqi","shortName":"阿拉善右旗"},{"code":152923,"lat":41.96755,"level":3,"lng":101.06887,"mergerName":"中国,内蒙古自治区,阿拉善盟,额济纳旗","name":"额济纳旗","parentCode":152900,"pinYin":"Ejinaqi","shortName":"额济纳旗"},{"code":210000,"lat":41.796767,"level":1,"lng":123.429096,"mergerName":"中国,辽宁省","name":"辽宁省","parentCode":100000,"pinYin":"Liaoning","shortName":"辽宁"},{"code":210100,"lat":41.796767,"level":2,"lng":123.429096,"mergerName":"中国,辽宁省,沈阳市","name":"沈阳市","parentCode":210000,"pinYin":"Shenyang","shortName":"沈阳"},{"code":210102,"lat":41.78997,"level":3,"lng":123.4204,"mergerName":"中国,辽宁省,沈阳市,和平区","name":"和平区","parentCode":210100,"pinYin":"Heping","shortName":"和平"},{"code":210103,"lat":41.79625,"level":3,"lng":123.45871,"mergerName":"中国,辽宁省,沈阳市,沈河区","name":"沈河区","parentCode":210100,"pinYin":"Shenhe","shortName":"沈河"},{"code":210104,"lat":41.80539,"level":3,"lng":123.46997,"mergerName":"中国,辽宁省,沈阳市,大东区","name":"大东区","parentCode":210100,"pinYin":"Dadong","shortName":"大东"},{"code":210105,"lat":41.82035,"level":3,"lng":123.42527,"mergerName":"中国,辽宁省,沈阳市,皇姑区","name":"皇姑区","parentCode":210100,"pinYin":"Huanggu","shortName":"皇姑"},{"code":210106,"lat":41.80269,"level":3,"lng":123.37675,"mergerName":"中国,辽宁省,沈阳市,铁西区","name":"铁西区","parentCode":210100,"pinYin":"Tiexi","shortName":"铁西"},{"code":210111,"lat":41.66475,"level":3,"lng":123.34405,"mergerName":"中国,辽宁省,沈阳市,苏家屯区","name":"苏家屯区","parentCode":210100,"pinYin":"Sujiatun","shortName":"苏家屯"},{"code":210112,"lat":41.71945,"level":3,"lng":123.457707,"mergerName":"中国,辽宁省,沈阳市,浑南区","name":"浑南区","parentCode":210100,"pinYin":"Hunnan","shortName":"浑南"},{"code":210113,"lat":42.05297,"level":3,"lng":123.52658,"mergerName":"中国,辽宁省,沈阳市,沈北新区","name":"沈北新区","parentCode":210100,"pinYin":"Shenbeixinqu","shortName":"沈北新区"},{"code":210114,"lat":41.794,"level":3,"lng":123.30807,"mergerName":"中国,辽宁省,沈阳市,于洪区","name":"于洪区","parentCode":210100,"pinYin":"Yuhong","shortName":"于洪"},{"code":210122,"lat":41.51302,"level":3,"lng":122.72659,"mergerName":"中国,辽宁省,沈阳市,辽中县","name":"辽中县","parentCode":210100,"pinYin":"Liaozhong","shortName":"辽中"},{"code":210123,"lat":42.75081,"level":3,"lng":123.35446,"mergerName":"中国,辽宁省,沈阳市,康平县","name":"康平县","parentCode":210100,"pinYin":"Kangping","shortName":"康平"},{"code":210124,"lat":42.50608,"level":3,"lng":123.41214,"mergerName":"中国,辽宁省,沈阳市,法库县","name":"法库县","parentCode":210100,"pinYin":"Faku","shortName":"法库"},{"code":210181,"lat":41.99847,"level":3,"lng":122.82867,"mergerName":"中国,辽宁省,沈阳市,新民市","name":"新民市","parentCode":210100,"pinYin":"Xinmin","shortName":"新民"},{"code":210200,"lat":38.91459,"level":2,"lng":121.618622,"mergerName":"中国,辽宁省,大连市","name":"大连市","parentCode":210000,"pinYin":"Dalian","shortName":"大连"},{"code":210202,"lat":38.91859,"level":3,"lng":121.64465,"mergerName":"中国,辽宁省,大连市,中山区","name":"中山区","parentCode":210200,"pinYin":"Zhongshan","shortName":"中山"},{"code":210203,"lat":38.91469,"level":3,"lng":121.61238,"mergerName":"中国,辽宁省,大连市,西岗区","name":"西岗区","parentCode":210200,"pinYin":"Xigang","shortName":"西岗"},{"code":210204,"lat":38.90536,"level":3,"lng":121.58017,"mergerName":"中国,辽宁省,大连市,沙河口区","name":"沙河口区","parentCode":210200,"pinYin":"Shahekou","shortName":"沙河口"},{"code":210211,"lat":38.95017,"level":3,"lng":121.56567,"mergerName":"中国,辽宁省,大连市,甘井子区","name":"甘井子区","parentCode":210200,"pinYin":"Ganjingzi","shortName":"甘井子"},{"code":210212,"lat":38.85125,"level":3,"lng":121.26202,"mergerName":"中国,辽宁省,大连市,旅顺口区","name":"旅顺口区","parentCode":210200,"pinYin":"Lvshunkou","shortName":"旅顺口"},{"code":210213,"lat":39.1004,"level":3,"lng":121.71893,"mergerName":"中国,辽宁省,大连市,金州区","name":"金州区","parentCode":210200,"pinYin":"Jinzhou","shortName":"金州"},{"code":210224,"lat":39.27274,"level":3,"lng":122.58859,"mergerName":"中国,辽宁省,大连市,长海县","name":"长海县","parentCode":210200,"pinYin":"Changhai","shortName":"长海"},{"code":210281,"lat":39.62843,"level":3,"lng":121.98104,"mergerName":"中国,辽宁省,大连市,瓦房店市","name":"瓦房店市","parentCode":210200,"pinYin":"Wafangdian","shortName":"瓦房店"},{"code":210282,"lat":39.39465,"level":3,"lng":121.96316,"mergerName":"中国,辽宁省,大连市,普兰店市","name":"普兰店市","parentCode":210200,"pinYin":"Pulandian","shortName":"普兰店"},{"code":210283,"lat":39.68815,"level":3,"lng":122.96725,"mergerName":"中国,辽宁省,大连市,庄河市","name":"庄河市","parentCode":210200,"pinYin":"Zhuanghe","shortName":"庄河"},{"code":210300,"lat":41.110626,"level":2,"lng":122.995632,"mergerName":"中国,辽宁省,鞍山市","name":"鞍山市","parentCode":210000,"pinYin":"Anshan","shortName":"鞍山"},{"code":210302,"lat":41.08975,"level":3,"lng":122.99085,"mergerName":"中国,辽宁省,鞍山市,铁东区","name":"铁东区","parentCode":210300,"pinYin":"Tiedong","shortName":"铁东"},{"code":210303,"lat":41.11977,"level":3,"lng":122.96967,"mergerName":"中国,辽宁省,鞍山市,铁西区","name":"铁西区","parentCode":210300,"pinYin":"Tiexi","shortName":"铁西"},{"code":210304,"lat":41.15008,"level":3,"lng":123.02948,"mergerName":"中国,辽宁省,鞍山市,立山区","name":"立山区","parentCode":210300,"pinYin":"Lishan","shortName":"立山"},{"code":210311,"lat":41.07507,"level":3,"lng":122.96048,"mergerName":"中国,辽宁省,鞍山市,千山区","name":"千山区","parentCode":210300,"pinYin":"Qianshan","shortName":"千山"},{"code":210321,"lat":41.41265,"level":3,"lng":122.43585,"mergerName":"中国,辽宁省,鞍山市,台安县","name":"台安县","parentCode":210300,"pinYin":"Taian","shortName":"台安"},{"code":210323,"lat":40.27996,"level":3,"lng":123.28875,"mergerName":"中国,辽宁省,鞍山市,岫岩满族自治县","name":"岫岩满族自治县","parentCode":210300,"pinYin":"Xiuyan","shortName":"岫岩"},{"code":210381,"lat":40.88142,"level":3,"lng":122.68457,"mergerName":"中国,辽宁省,鞍山市,海城市","name":"海城市","parentCode":210300,"pinYin":"Haicheng","shortName":"海城"},{"code":210400,"lat":41.875956,"level":2,"lng":123.921109,"mergerName":"中国,辽宁省,抚顺市","name":"抚顺市","parentCode":210000,"pinYin":"Fushun","shortName":"抚顺"},{"code":210402,"lat":41.86205,"level":3,"lng":123.91264,"mergerName":"中国,辽宁省,抚顺市,新抚区","name":"新抚区","parentCode":210400,"pinYin":"Xinfu","shortName":"新抚"},{"code":210403,"lat":41.8519,"level":3,"lng":124.03759,"mergerName":"中国,辽宁省,抚顺市,东洲区","name":"东洲区","parentCode":210400,"pinYin":"Dongzhou","shortName":"东洲"},{"code":210404,"lat":41.85532,"level":3,"lng":123.78283,"mergerName":"中国,辽宁省,抚顺市,望花区","name":"望花区","parentCode":210400,"pinYin":"Wanghua","shortName":"望花"},{"code":210411,"lat":41.88321,"level":3,"lng":123.94506,"mergerName":"中国,辽宁省,抚顺市,顺城区","name":"顺城区","parentCode":210400,"pinYin":"Shuncheng","shortName":"顺城"},{"code":210421,"lat":41.71217,"level":3,"lng":124.17755,"mergerName":"中国,辽宁省,抚顺市,抚顺县","name":"抚顺县","parentCode":210400,"pinYin":"Fushun","shortName":"抚顺"},{"code":210422,"lat":41.73409,"level":3,"lng":125.04049,"mergerName":"中国,辽宁省,抚顺市,新宾满族自治县","name":"新宾满族自治县","parentCode":210400,"pinYin":"Xinbin","shortName":"新宾"},{"code":210423,"lat":42.10221,"level":3,"lng":124.92807,"mergerName":"中国,辽宁省,抚顺市,清原满族自治县","name":"清原满族自治县","parentCode":210400,"pinYin":"Qingyuan","shortName":"清原"},{"code":210500,"lat":41.297909,"level":2,"lng":123.770519,"mergerName":"中国,辽宁省,本溪市","name":"本溪市","parentCode":210000,"pinYin":"Benxi","shortName":"本溪"},{"code":210502,"lat":41.2997,"level":3,"lng":123.76892,"mergerName":"中国,辽宁省,本溪市,平山区","name":"平山区","parentCode":210500,"pinYin":"Pingshan","shortName":"平山"},{"code":210503,"lat":41.32921,"level":3,"lng":123.76764,"mergerName":"中国,辽宁省,本溪市,溪湖区","name":"溪湖区","parentCode":210500,"pinYin":"Xihu","shortName":"溪湖"},{"code":210504,"lat":41.30827,"level":3,"lng":123.81746,"mergerName":"中国,辽宁省,本溪市,明山区","name":"明山区","parentCode":210500,"pinYin":"Mingshan","shortName":"明山"},{"code":210505,"lat":41.1006,"level":3,"lng":123.74523,"mergerName":"中国,辽宁省,本溪市,南芬区","name":"南芬区","parentCode":210500,"pinYin":"Nanfen","shortName":"南芬"},{"code":210521,"lat":41.30059,"level":3,"lng":124.12741,"mergerName":"中国,辽宁省,本溪市,本溪满族自治县","name":"本溪满族自治县","parentCode":210500,"pinYin":"Benxi","shortName":"本溪"},{"code":210522,"lat":41.26798,"level":3,"lng":125.36062,"mergerName":"中国,辽宁省,本溪市,桓仁满族自治县","name":"桓仁满族自治县","parentCode":210500,"pinYin":"Huanren","shortName":"桓仁"},{"code":210600,"lat":40.124296,"level":2,"lng":124.383044,"mergerName":"中国,辽宁省,丹东市","name":"丹东市","parentCode":210000,"pinYin":"Dandong","shortName":"丹东"},{"code":210602,"lat":40.13651,"level":3,"lng":124.39575,"mergerName":"中国,辽宁省,丹东市,元宝区","name":"元宝区","parentCode":210600,"pinYin":"Yuanbao","shortName":"元宝"},{"code":210603,"lat":40.10489,"level":3,"lng":124.36035,"mergerName":"中国,辽宁省,丹东市,振兴区","name":"振兴区","parentCode":210600,"pinYin":"Zhenxing","shortName":"振兴"},{"code":210604,"lat":40.15826,"level":3,"lng":124.42816,"mergerName":"中国,辽宁省,丹东市,振安区","name":"振安区","parentCode":210600,"pinYin":"Zhenan","shortName":"振安"},{"code":210624,"lat":40.73187,"level":3,"lng":124.78247,"mergerName":"中国,辽宁省,丹东市,宽甸满族自治县","name":"宽甸满族自治县","parentCode":210600,"pinYin":"Kuandian","shortName":"宽甸"},{"code":210681,"lat":39.86256,"level":3,"lng":124.16287,"mergerName":"中国,辽宁省,丹东市,东港市","name":"东港市","parentCode":210600,"pinYin":"Donggang","shortName":"东港"},{"code":210682,"lat":40.45302,"level":3,"lng":124.06671,"mergerName":"中国,辽宁省,丹东市,凤城市","name":"凤城市","parentCode":210600,"pinYin":"Fengcheng","shortName":"凤城"},{"code":210700,"lat":41.119269,"level":2,"lng":121.135742,"mergerName":"中国,辽宁省,锦州市","name":"锦州市","parentCode":210000,"pinYin":"Jinzhou","shortName":"锦州"},{"code":210702,"lat":41.11725,"level":3,"lng":121.12832,"mergerName":"中国,辽宁省,锦州市,古塔区","name":"古塔区","parentCode":210700,"pinYin":"Guta","shortName":"古塔"},{"code":210703,"lat":41.11496,"level":3,"lng":121.15089,"mergerName":"中国,辽宁省,锦州市,凌河区","name":"凌河区","parentCode":210700,"pinYin":"Linghe","shortName":"凌河"},{"code":210711,"lat":41.10929,"level":3,"lng":121.10354,"mergerName":"中国,辽宁省,锦州市,太和区","name":"太和区","parentCode":210700,"pinYin":"Taihe","shortName":"太和"},{"code":210726,"lat":41.69417,"level":3,"lng":122.12081,"mergerName":"中国,辽宁省,锦州市,黑山县","name":"黑山县","parentCode":210700,"pinYin":"Heishan","shortName":"黑山"},{"code":210727,"lat":41.53458,"level":3,"lng":121.24035,"mergerName":"中国,辽宁省,锦州市,义县","name":"义县","parentCode":210700,"pinYin":"Yixian","shortName":"义县"},{"code":210781,"lat":41.1737,"level":3,"lng":121.35705,"mergerName":"中国,辽宁省,锦州市,凌海市","name":"凌海市","parentCode":210700,"pinYin":"Linghai","shortName":"凌海"},{"code":210782,"lat":41.59537,"level":3,"lng":121.79858,"mergerName":"中国,辽宁省,锦州市,北镇市","name":"北镇市","parentCode":210700,"pinYin":"Beizhen","shortName":"北镇"},{"code":210800,"lat":40.667432,"level":2,"lng":122.235151,"mergerName":"中国,辽宁省,营口市","name":"营口市","parentCode":210000,"pinYin":"Yingkou","shortName":"营口"},{"code":210802,"lat":40.67266,"level":3,"lng":122.25896,"mergerName":"中国,辽宁省,营口市,站前区","name":"站前区","parentCode":210800,"pinYin":"Zhanqian","shortName":"站前"},{"code":210803,"lat":40.6664,"level":3,"lng":122.20641,"mergerName":"中国,辽宁省,营口市,西市区","name":"西市区","parentCode":210800,"pinYin":"Xishi","shortName":"西市"},{"code":210804,"lat":40.26865,"level":3,"lng":122.13266,"mergerName":"中国,辽宁省,营口市,鲅鱼圈区","name":"鲅鱼圈区","parentCode":210800,"pinYin":"Bayuquan","shortName":"鲅鱼圈"},{"code":210811,"lat":40.6803,"level":3,"lng":122.37996,"mergerName":"中国,辽宁省,营口市,老边区","name":"老边区","parentCode":210800,"pinYin":"Laobian","shortName":"老边"},{"code":210881,"lat":40.40446,"level":3,"lng":122.35464,"mergerName":"中国,辽宁省,营口市,盖州市","name":"盖州市","parentCode":210800,"pinYin":"Gaizhou","shortName":"盖州"},{"code":210882,"lat":40.64567,"level":3,"lng":122.50927,"mergerName":"中国,辽宁省,营口市,大石桥市","name":"大石桥市","parentCode":210800,"pinYin":"Dashiqiao","shortName":"大石桥"},{"code":210900,"lat":42.011796,"level":2,"lng":121.648962,"mergerName":"中国,辽宁省,阜新市","name":"阜新市","parentCode":210000,"pinYin":"Fuxin","shortName":"阜新"},{"code":210902,"lat":42.01336,"level":3,"lng":121.65626,"mergerName":"中国,辽宁省,阜新市,海州区","name":"海州区","parentCode":210900,"pinYin":"Haizhou","shortName":"海州"},{"code":210903,"lat":42.09181,"level":3,"lng":121.79251,"mergerName":"中国,辽宁省,阜新市,新邱区","name":"新邱区","parentCode":210900,"pinYin":"Xinqiu","shortName":"新邱"},{"code":210904,"lat":42.01065,"level":3,"lng":121.67865,"mergerName":"中国,辽宁省,阜新市,太平区","name":"太平区","parentCode":210900,"pinYin":"Taiping","shortName":"太平"},{"code":210905,"lat":41.78309,"level":3,"lng":121.4161,"mergerName":"中国,辽宁省,阜新市,清河门区","name":"清河门区","parentCode":210900,"pinYin":"Qinghemen","shortName":"清河门"},{"code":210911,"lat":42.02533,"level":3,"lng":121.68013,"mergerName":"中国,辽宁省,阜新市,细河区","name":"细河区","parentCode":210900,"pinYin":"Xihe","shortName":"细河"},{"code":210921,"lat":42.0651,"level":3,"lng":121.75787,"mergerName":"中国,辽宁省,阜新市,阜新蒙古族自治县","name":"阜新蒙古族自治县","parentCode":210900,"pinYin":"Fuxin","shortName":"阜新"},{"code":210922,"lat":42.38625,"level":3,"lng":122.54022,"mergerName":"中国,辽宁省,阜新市,彰武县","name":"彰武县","parentCode":210900,"pinYin":"Zhangwu","shortName":"彰武"},{"code":211000,"lat":41.269402,"level":2,"lng":123.18152,"mergerName":"中国,辽宁省,辽阳市","name":"辽阳市","parentCode":210000,"pinYin":"Liaoyang","shortName":"辽阳"},{"code":211002,"lat":41.27025,"level":3,"lng":123.1747,"mergerName":"中国,辽宁省,辽阳市,白塔区","name":"白塔区","parentCode":211000,"pinYin":"Baita","shortName":"白塔"},{"code":211003,"lat":41.26267,"level":3,"lng":123.18521,"mergerName":"中国,辽宁省,辽阳市,文圣区","name":"文圣区","parentCode":211000,"pinYin":"Wensheng","shortName":"文圣"},{"code":211004,"lat":41.21852,"level":3,"lng":123.1929,"mergerName":"中国,辽宁省,辽阳市,宏伟区","name":"宏伟区","parentCode":211000,"pinYin":"Hongwei","shortName":"宏伟"},{"code":211005,"lat":41.15181,"level":3,"lng":123.41963,"mergerName":"中国,辽宁省,辽阳市,弓长岭区","name":"弓长岭区","parentCode":211000,"pinYin":"Gongchangling","shortName":"弓长岭"},{"code":211011,"lat":41.25337,"level":3,"lng":123.18182,"mergerName":"中国,辽宁省,辽阳市,太子河区","name":"太子河区","parentCode":211000,"pinYin":"Taizihe","shortName":"太子河"},{"code":211021,"lat":41.20542,"level":3,"lng":123.10574,"mergerName":"中国,辽宁省,辽阳市,辽阳县","name":"辽阳县","parentCode":211000,"pinYin":"Liaoyang","shortName":"辽阳"},{"code":211081,"lat":41.42612,"level":3,"lng":123.33926,"mergerName":"中国,辽宁省,辽阳市,灯塔市","name":"灯塔市","parentCode":211000,"pinYin":"Dengta","shortName":"灯塔"},{"code":211100,"lat":41.124484,"level":2,"lng":122.06957,"mergerName":"中国,辽宁省,盘锦市","name":"盘锦市","parentCode":210000,"pinYin":"Panjin","shortName":"盘锦"},{"code":211102,"lat":41.1906,"level":3,"lng":122.06011,"mergerName":"中国,辽宁省,盘锦市,双台子区","name":"双台子区","parentCode":211100,"pinYin":"Shuangtaizi","shortName":"双台子"},{"code":211103,"lat":41.12402,"level":3,"lng":122.07529,"mergerName":"中国,辽宁省,盘锦市,兴隆台区","name":"兴隆台区","parentCode":211100,"pinYin":"Xinglongtai","shortName":"兴隆台"},{"code":211121,"lat":41.00244,"level":3,"lng":122.08239,"mergerName":"中国,辽宁省,盘锦市,大洼县","name":"大洼县","parentCode":211100,"pinYin":"Dawa","shortName":"大洼"},{"code":211122,"lat":41.23805,"level":3,"lng":121.99777,"mergerName":"中国,辽宁省,盘锦市,盘山县","name":"盘山县","parentCode":211100,"pinYin":"Panshan","shortName":"盘山"},{"code":211200,"lat":42.290585,"level":2,"lng":123.844279,"mergerName":"中国,辽宁省,铁岭市","name":"铁岭市","parentCode":210000,"pinYin":"Tieling","shortName":"铁岭"},{"code":211202,"lat":42.29507,"level":3,"lng":123.8573,"mergerName":"中国,辽宁省,铁岭市,银州区","name":"银州区","parentCode":211200,"pinYin":"Yinzhou","shortName":"银州"},{"code":211204,"lat":42.54679,"level":3,"lng":124.15911,"mergerName":"中国,辽宁省,铁岭市,清河区","name":"清河区","parentCode":211200,"pinYin":"Qinghe","shortName":"清河"},{"code":211221,"lat":42.22498,"level":3,"lng":123.77325,"mergerName":"中国,辽宁省,铁岭市,铁岭县","name":"铁岭县","parentCode":211200,"pinYin":"Tieling","shortName":"铁岭"},{"code":211223,"lat":42.73756,"level":3,"lng":124.7304,"mergerName":"中国,辽宁省,铁岭市,西丰县","name":"西丰县","parentCode":211200,"pinYin":"Xifeng","shortName":"西丰"},{"code":211224,"lat":42.78428,"level":3,"lng":124.11206,"mergerName":"中国,辽宁省,铁岭市,昌图县","name":"昌图县","parentCode":211200,"pinYin":"Changtu","shortName":"昌图"},{"code":211281,"lat":42.4675,"level":3,"lng":123.56689,"mergerName":"中国,辽宁省,铁岭市,调兵山市","name":"调兵山市","parentCode":211200,"pinYin":"Diaobingshan","shortName":"调兵山"},{"code":211282,"lat":42.54585,"level":3,"lng":124.03945,"mergerName":"中国,辽宁省,铁岭市,开原市","name":"开原市","parentCode":211200,"pinYin":"Kaiyuan","shortName":"开原"},{"code":211300,"lat":41.576758,"level":2,"lng":120.451176,"mergerName":"中国,辽宁省,朝阳市","name":"朝阳市","parentCode":210000,"pinYin":"Chaoyang","shortName":"朝阳"},{"code":211302,"lat":41.566,"level":3,"lng":120.45385,"mergerName":"中国,辽宁省,朝阳市,双塔区","name":"双塔区","parentCode":211300,"pinYin":"Shuangta","shortName":"双塔"},{"code":211303,"lat":41.59264,"level":3,"lng":120.43719,"mergerName":"中国,辽宁省,朝阳市,龙城区","name":"龙城区","parentCode":211300,"pinYin":"Longcheng","shortName":"龙城"},{"code":211321,"lat":41.4324,"level":3,"lng":120.17401,"mergerName":"中国,辽宁省,朝阳市,朝阳县","name":"朝阳县","parentCode":211300,"pinYin":"Chaoyang","shortName":"朝阳"},{"code":211322,"lat":41.40315,"level":3,"lng":119.64392,"mergerName":"中国,辽宁省,朝阳市,建平县","name":"建平县","parentCode":211300,"pinYin":"Jianping","shortName":"建平"},{"code":211324,"lat":41.12801,"level":3,"lng":119.74185,"mergerName":"中国,辽宁省,朝阳市,喀喇沁左翼蒙古族自治县","name":"喀喇沁左翼蒙古族自治县","parentCode":211300,"pinYin":"Kalaqinzuoyi","shortName":"喀喇沁左翼"},{"code":211381,"lat":41.80196,"level":3,"lng":120.76977,"mergerName":"中国,辽宁省,朝阳市,北票市","name":"北票市","parentCode":211300,"pinYin":"Beipiao","shortName":"北票"},{"code":211382,"lat":41.24558,"level":3,"lng":119.40148,"mergerName":"中国,辽宁省,朝阳市,凌源市","name":"凌源市","parentCode":211300,"pinYin":"Lingyuan","shortName":"凌源"},{"code":211400,"lat":40.755572,"level":2,"lng":120.856394,"mergerName":"中国,辽宁省,葫芦岛市","name":"葫芦岛市","parentCode":210000,"pinYin":"Huludao","shortName":"葫芦岛"},{"code":211402,"lat":40.75554,"level":3,"lng":120.86393,"mergerName":"中国,辽宁省,葫芦岛市,连山区","name":"连山区","parentCode":211400,"pinYin":"Lianshan","shortName":"连山"},{"code":211403,"lat":40.71919,"level":3,"lng":120.94866,"mergerName":"中国,辽宁省,葫芦岛市,龙港区","name":"龙港区","parentCode":211400,"pinYin":"Longgang","shortName":"龙港"},{"code":211404,"lat":41.10707,"level":3,"lng":120.74978,"mergerName":"中国,辽宁省,葫芦岛市,南票区","name":"南票区","parentCode":211400,"pinYin":"Nanpiao","shortName":"南票"},{"code":211421,"lat":40.32552,"level":3,"lng":120.34451,"mergerName":"中国,辽宁省,葫芦岛市,绥中县","name":"绥中县","parentCode":211400,"pinYin":"Suizhong","shortName":"绥中"},{"code":211422,"lat":40.82448,"level":3,"lng":119.8377,"mergerName":"中国,辽宁省,葫芦岛市,建昌县","name":"建昌县","parentCode":211400,"pinYin":"Jianchang","shortName":"建昌"},{"code":211481,"lat":40.61492,"level":3,"lng":120.72537,"mergerName":"中国,辽宁省,葫芦岛市,兴城市","name":"兴城市","parentCode":211400,"pinYin":"Xingcheng","shortName":"兴城"},{"code":211500,"lat":39.055451,"level":2,"lng":121.789627,"mergerName":"中国,辽宁省,金普新区","name":"金普新区","parentCode":210000,"pinYin":"Jinpuxinqu","shortName":"金普新区"},{"code":211501,"lat":39.052252,"level":3,"lng":121.784821,"mergerName":"中国,辽宁省,金普新区,金州新区","name":"金州新区","parentCode":211500,"pinYin":"Jinzhouxinqu","shortName":"金州新区"},{"code":211502,"lat":39.330093,"level":3,"lng":121.812812,"mergerName":"中国,辽宁省,金普新区,普湾新区","name":"普湾新区","parentCode":211500,"pinYin":"Puwanxinqu","shortName":"普湾新区"},{"code":211503,"lat":39.224614,"level":3,"lng":121.94289,"mergerName":"中国,辽宁省,金普新区,保税区","name":"保税区","parentCode":211500,"pinYin":"Baoshuiqu","shortName":"保税区"},{"code":220000,"lat":43.886841,"level":1,"lng":125.3245,"mergerName":"中国,吉林省","name":"吉林省","parentCode":100000,"pinYin":"Jilin","shortName":"吉林"},{"code":220100,"lat":43.886841,"level":2,"lng":125.3245,"mergerName":"中国,吉林省,长春市","name":"长春市","parentCode":220000,"pinYin":"Changchun","shortName":"长春"},{"code":220102,"lat":43.86401,"level":3,"lng":125.35035,"mergerName":"中国,吉林省,长春市,南关区","name":"南关区","parentCode":220100,"pinYin":"Nanguan","shortName":"南关"},{"code":220103,"lat":43.90182,"level":3,"lng":125.32635,"mergerName":"中国,吉林省,长春市,宽城区","name":"宽城区","parentCode":220100,"pinYin":"Kuancheng","shortName":"宽城"},{"code":220104,"lat":43.83339,"level":3,"lng":125.2883,"mergerName":"中国,吉林省,长春市,朝阳区","name":"朝阳区","parentCode":220100,"pinYin":"Chaoyang","shortName":"朝阳"},{"code":220105,"lat":43.86501,"level":3,"lng":125.37429,"mergerName":"中国,吉林省,长春市,二道区","name":"二道区","parentCode":220100,"pinYin":"Erdao","shortName":"二道"},{"code":220106,"lat":43.88045,"level":3,"lng":125.25582,"mergerName":"中国,吉林省,长春市,绿园区","name":"绿园区","parentCode":220100,"pinYin":"Lvyuan","shortName":"绿园"},{"code":220112,"lat":43.52803,"level":3,"lng":125.65631,"mergerName":"中国,吉林省,长春市,双阳区","name":"双阳区","parentCode":220100,"pinYin":"Shuangyang","shortName":"双阳"},{"code":220113,"lat":44.15163,"level":3,"lng":125.8395,"mergerName":"中国,吉林省,长春市,九台区","name":"九台区","parentCode":220100,"pinYin":"Jiutai","shortName":"九台"},{"code":220122,"lat":44.43265,"level":3,"lng":125.18481,"mergerName":"中国,吉林省,长春市,农安县","name":"农安县","parentCode":220100,"pinYin":"Nongan","shortName":"农安"},{"code":220182,"lat":44.82523,"level":3,"lng":126.55688,"mergerName":"中国,吉林省,长春市,榆树市","name":"榆树市","parentCode":220100,"pinYin":"Yushu","shortName":"榆树"},{"code":220183,"lat":44.53719,"level":3,"lng":125.70538,"mergerName":"中国,吉林省,长春市,德惠市","name":"德惠市","parentCode":220100,"pinYin":"Dehui","shortName":"德惠"},{"code":220200,"lat":43.843577,"level":2,"lng":126.55302,"mergerName":"中国,吉林省,吉林市","name":"吉林市","parentCode":220000,"pinYin":"Jilin","shortName":"吉林"},{"code":220202,"lat":43.88183,"level":3,"lng":126.57424,"mergerName":"中国,吉林省,吉林市,昌邑区","name":"昌邑区","parentCode":220200,"pinYin":"Changyi","shortName":"昌邑"},{"code":220203,"lat":43.91054,"level":3,"lng":126.56213,"mergerName":"中国,吉林省,吉林市,龙潭区","name":"龙潭区","parentCode":220200,"pinYin":"Longtan","shortName":"龙潭"},{"code":220204,"lat":43.83344,"level":3,"lng":126.54096,"mergerName":"中国,吉林省,吉林市,船营区","name":"船营区","parentCode":220200,"pinYin":"Chuanying","shortName":"船营"},{"code":220211,"lat":43.82236,"level":3,"lng":126.56237,"mergerName":"中国,吉林省,吉林市,丰满区","name":"丰满区","parentCode":220200,"pinYin":"Fengman","shortName":"丰满"},{"code":220221,"lat":43.67197,"level":3,"lng":126.4963,"mergerName":"中国,吉林省,吉林市,永吉县","name":"永吉县","parentCode":220200,"pinYin":"Yongji","shortName":"永吉"},{"code":220281,"lat":43.72696,"level":3,"lng":127.34426,"mergerName":"中国,吉林省,吉林市,蛟河市","name":"蛟河市","parentCode":220200,"pinYin":"Jiaohe","shortName":"蛟河"},{"code":220282,"lat":42.97206,"level":3,"lng":126.74624,"mergerName":"中国,吉林省,吉林市,桦甸市","name":"桦甸市","parentCode":220200,"pinYin":"Huadian","shortName":"桦甸"},{"code":220283,"lat":44.40582,"level":3,"lng":126.9653,"mergerName":"中国,吉林省,吉林市,舒兰市","name":"舒兰市","parentCode":220200,"pinYin":"Shulan","shortName":"舒兰"},{"code":220284,"lat":42.94628,"level":3,"lng":126.0625,"mergerName":"中国,吉林省,吉林市,磐石市","name":"磐石市","parentCode":220200,"pinYin":"Panshi","shortName":"磐石"},{"code":220300,"lat":43.170344,"level":2,"lng":124.370785,"mergerName":"中国,吉林省,四平市","name":"四平市","parentCode":220000,"pinYin":"Siping","shortName":"四平"},{"code":220302,"lat":43.17456,"level":3,"lng":124.37369,"mergerName":"中国,吉林省,四平市,铁西区","name":"铁西区","parentCode":220300,"pinYin":"Tiexi","shortName":"铁西"},{"code":220303,"lat":43.16241,"level":3,"lng":124.40976,"mergerName":"中国,吉林省,四平市,铁东区","name":"铁东区","parentCode":220300,"pinYin":"Tiedong","shortName":"铁东"},{"code":220322,"lat":43.30717,"level":3,"lng":124.33563,"mergerName":"中国,吉林省,四平市,梨树县","name":"梨树县","parentCode":220300,"pinYin":"Lishu","shortName":"梨树"},{"code":220323,"lat":43.34434,"level":3,"lng":125.30596,"mergerName":"中国,吉林省,四平市,伊通满族自治县","name":"伊通满族自治县","parentCode":220300,"pinYin":"Yitong","shortName":"伊通"},{"code":220381,"lat":43.50453,"level":3,"lng":124.82266,"mergerName":"中国,吉林省,四平市,公主岭市","name":"公主岭市","parentCode":220300,"pinYin":"Gongzhuling","shortName":"公主岭"},{"code":220382,"lat":43.52099,"level":3,"lng":123.50106,"mergerName":"中国,吉林省,四平市,双辽市","name":"双辽市","parentCode":220300,"pinYin":"Shuangliao","shortName":"双辽"},{"code":220400,"lat":42.902692,"level":2,"lng":125.145349,"mergerName":"中国,吉林省,辽源市","name":"辽源市","parentCode":220000,"pinYin":"Liaoyuan","shortName":"辽源"},{"code":220402,"lat":42.89714,"level":3,"lng":125.13641,"mergerName":"中国,吉林省,辽源市,龙山区","name":"龙山区","parentCode":220400,"pinYin":"Longshan","shortName":"龙山"},{"code":220403,"lat":42.927,"level":3,"lng":125.14904,"mergerName":"中国,吉林省,辽源市,西安区","name":"西安区","parentCode":220400,"pinYin":"Xian","shortName":"西安"},{"code":220421,"lat":42.6783,"level":3,"lng":125.53244,"mergerName":"中国,吉林省,辽源市,东丰县","name":"东丰县","parentCode":220400,"pinYin":"Dongfeng","shortName":"东丰"},{"code":220422,"lat":42.92492,"level":3,"lng":124.98596,"mergerName":"中国,吉林省,辽源市,东辽县","name":"东辽县","parentCode":220400,"pinYin":"Dongliao","shortName":"东辽"},{"code":220500,"lat":41.721177,"level":2,"lng":125.936501,"mergerName":"中国,吉林省,通化市","name":"通化市","parentCode":220000,"pinYin":"Tonghua","shortName":"通化"},{"code":220502,"lat":41.72849,"level":3,"lng":125.9551,"mergerName":"中国,吉林省,通化市,东昌区","name":"东昌区","parentCode":220500,"pinYin":"Dongchang","shortName":"东昌"},{"code":220503,"lat":41.7741,"level":3,"lng":126.04257,"mergerName":"中国,吉林省,通化市,二道江区","name":"二道江区","parentCode":220500,"pinYin":"Erdaojiang","shortName":"二道江"},{"code":220521,"lat":41.67928,"level":3,"lng":125.75936,"mergerName":"中国,吉林省,通化市,通化县","name":"通化县","parentCode":220500,"pinYin":"Tonghua","shortName":"通化"},{"code":220523,"lat":42.68497,"level":3,"lng":126.04684,"mergerName":"中国,吉林省,通化市,辉南县","name":"辉南县","parentCode":220500,"pinYin":"Huinan","shortName":"辉南"},{"code":220524,"lat":42.28468,"level":3,"lng":125.74475,"mergerName":"中国,吉林省,通化市,柳河县","name":"柳河县","parentCode":220500,"pinYin":"Liuhe","shortName":"柳河"},{"code":220581,"lat":42.53828,"level":3,"lng":125.71041,"mergerName":"中国,吉林省,通化市,梅河口市","name":"梅河口市","parentCode":220500,"pinYin":"Meihekou","shortName":"梅河口"},{"code":220582,"lat":41.12268,"level":3,"lng":126.18829,"mergerName":"中国,吉林省,通化市,集安市","name":"集安市","parentCode":220500,"pinYin":"Jian","shortName":"集安"},{"code":220600,"lat":41.942505,"level":2,"lng":126.427839,"mergerName":"中国,吉林省,白山市","name":"白山市","parentCode":220000,"pinYin":"Baishan","shortName":"白山"},{"code":220602,"lat":41.945656,"level":3,"lng":126.422342,"mergerName":"中国,吉林省,白山市,浑江区","name":"浑江区","parentCode":220600,"pinYin":"Hunjiang","shortName":"浑江"},{"code":220605,"lat":42.05664,"level":3,"lng":126.59079,"mergerName":"中国,吉林省,白山市,江源区","name":"江源区","parentCode":220600,"pinYin":"Jiangyuan","shortName":"江源"},{"code":220621,"lat":42.34198,"level":3,"lng":127.2803,"mergerName":"中国,吉林省,白山市,抚松县","name":"抚松县","parentCode":220600,"pinYin":"Fusong","shortName":"抚松"},{"code":220622,"lat":42.38863,"level":3,"lng":126.81308,"mergerName":"中国,吉林省,白山市,靖宇县","name":"靖宇县","parentCode":220600,"pinYin":"Jingyu","shortName":"靖宇"},{"code":220623,"lat":41.41996,"level":3,"lng":128.20047,"mergerName":"中国,吉林省,白山市,长白朝鲜族自治县","name":"长白朝鲜族自治县","parentCode":220600,"pinYin":"Changbai","shortName":"长白"},{"code":220681,"lat":41.81142,"level":3,"lng":126.91751,"mergerName":"中国,吉林省,白山市,临江市","name":"临江市","parentCode":220600,"pinYin":"Linjiang","shortName":"临江"},